id	name	city	zipcode	street	house_number	telephone	fax	email	website	longitude	latitude	agency_number	main_school_type	school_type
9099793	Goethe-Gemeinschaftsschule, Gemeinschaftsschule der Landeshauptstadt Kiel in Kiel	Kiel	24118	Westring 358		+49 431 26042850	+49 431 26042869	Goethe-gemeinschaftsschule.kiel@schule.landsh.de	https://www.ggs-kiel.de	10.125675992206988	54.33448298508549	0707060	1024	1024
9099810	Gemeinschaftsschule am Hamberg, Gemeinschaftsschule des Amtes Burg-St. Michaelisdonn in Burg	Burg (Dithmarschen)	25712	Am Sportplatz	21	+49 4825 2569	+49 4825 9166	Gemeinschaftsschule-am-Hamberg.Burg@schule.landsh.de		9.251399129181406	54.00221251297963	0707200	1024	1024
9099825	Grundschule Hennstedt des Amtes KLG Eider in Hennstedt	Hennstedt (Dithmarschen)	25779	Schulstraße	29 - 31	+49 4836 516	+49 4836 639	Grundschule.Hennstedt-hei@schule.landsh.de		9.166013773625945	54.284540219044246	0702202	1	1
9099840	Marschenschool, Grundschule des Amtes Marne - Nordsee in Kronprinzenkoog	Kronprinzenkoog	25709	Mittelstraße	33	+49 4856 233	+49 4856 904350	Grundschule.Kronprinzenkoog@schule.landsh.de	https://www.marschenschool.de	8.962047784468572	53.97130346372738	0702190	1	1
9099857	Aussenstelle Helse	Helse	25709	Alte Landstraße	12	+49 4851 3497	+49 4851 964661	gs.helse@marschenschool.de	https://www.marschenschool.de	9.011490540839915	53.97399824844168			
9099874	Landerziehungsheim Stiftung Louisenlund Internatsgymnasium Boarding School - IB  World School	Güby	24357	Louisenlund	9	+49 4354 999302	+49 4354 999171	Stiftung-Louisenlund.Gueby@schule.landsh.de	https://www.louisenlund.de	9.680839414830515	54.4824578784585	0799550	256	288
9099887	Grundschule Schuby des Amtes Arensharde in Schuby	Schuby	24850	Bahnhofstraße	18	+49 4621 4390	+49 4621 41197	Grundschule.schuby@schule.landsh.de		9.47840048	54.51788635	0702787	1	1
9099904	Schule Hohe Geest, Gymnasium mit Gemeinschaftsschulteil des Schulverbandes Hohenwestedt, in Hohenwestedt	Hohenwestedt	24594	Rektor-Wurr-Straße	4 - 10	+49 4871 8668	+49 4871 1345	schule-hohe-geest.hohenwestedt@schule.landsh.de	https://www.Schule-Hohe-Geest.de	9.659182709802668	54.08937211077946	0705557	32	1056
9099921	Grundschule Lütte School	Henstedt-Ulzburg	24558	Abschiedskoppel	6	+49 4193 8825115	+49 4193 8825116	Luette-School.Henstedt-Ulzburg@schule.landsh.de	https://www.luette-school.de	9.980003722648963	53.77628444552968	0702886	1	1
9099932	Grundschule Breklum-Bredstedt-Bordelum	Bredstedt	25821	Gartenstraße	15	+49 4671 2410	+49 4671 2670	Grundschule.Bredstedt@schule.landsh.de	https://grundschule-bredstedt.de	8.96690868444978	54.61736108630756	0702329	1	4097
9099962	Auenwaldschule Grundschule Böklund	Böklund	24860	Stolker Straße	4	+49 4623 180280	+49 4623 180285	Auenwaldschule-Grundschule.Boeklund@schule.landsh.de	https://www.auenwaldschule.de	9.575534925406643	54.60298025159843	0702751	1	1
9099979	A. P. Møller Skolen	Schleswig	24837	Fjordallee	1	+49 4621 4820-0		apms@skoleforeningen.org		9.589968536913515	54.515353113777486	0799863	256	256
9100018	Leibniz Privatschule Kaltenkirchen	Kaltenkirchen	24568	Werner-von Siemens-Straße	14	+49 4191 9911573	+49 4191 9911599	kaltenkirchen@leibniz-privatschule.de	https://www.leibniz-privatschule.de	9.844805038356013	53.91711180550412	0799456	256	256
9100035	Schule Auf der Rude	Flensburg	24941	Lundweg	30	+49 461 852556	+49 461 851642	Schule-auf-der-Rude.Flensburg@schule.landsh.de	https://schule-auf-der-rude.lernnetz.de	9.42876994225117	54.772664045135976	0702020	1	1
9100052	Falkenbergschule	Flensburg	24937	Emil-Nolde-Straße	31	+49 461 852548	+49 461 851643	Falkenbergschule.Flensburg@schule.landsh.de		9.410593997142753	54.782593478209485	0702021	1	1
9100067	Hohlwegschule	Flensburg	24943	Glücksburger Straße	38 a	+49 461 852587	+49 461 851724	Hohlwegschule.Flensburg@schule.landsh.de	https://www.hohlwegschule.lernnetz.de	9.447596033232378	54.78479240986997	0702022	1	1
9100084	Grundschule Ramsharde, Flensburg	Flensburg	24939	Am Katharinenhof	29	+49 461 852541	+49 461 851751	Schule-Ramsharde.Flensburg@schule.landsh.de	https://www.schuleramsharde.lernnetz.de	9.419594778526523	54.80222690060637	0702023	1	1
9100101	Waldschule	Flensburg	24939	Waldstraße	44	+49 461 852545	+49 461 851725	Waldschule.Flensburg@schule.landsh.de	https://www.waldschule.lernnetz.de	9.417188768620532	54.79417995465272	0702024	1	1
9100135	Grundschule Engelsby	Flensburg	24943	Brahmsstraße	2 - 4	+49 461 852597	+49 461 851781	Schule-Engelsby.Flensburg@schule.landsh.de		9.474175193574933	54.792045719171185	0702028	1	1
9100150	Grundschule Flensburg-Weiche UNESCO-Schule	Flensburg	24941	Bahnstraße	20	+49 461 852553	+49 461 851720	unesco-schule.flensburg@schule.landsh.de	https://www.unesco.flensburg.de	9.401579498424194	54.75854588953697	0702029	1	1
9100167	Grundschule Friedheim	Flensburg	24944	Marrenshof	1	+49 461 852529	+49 461 851782	Schule-Friedheim.Flensburg@schule.landsh.de	https://www.schule-friedheim.flensburg.de	9.478025892111104	54.81186378880829	0702030	1	1
9100184	Schule Fruerlund	Flensburg	24943	Bohlberg	58	+49 461 852554	+49 461 851669	Schule-Fruerlund.Flensburg@schule.landsh.de	https://www.fruerlund.flensburg.de	9.457827419937024	54.79376072322141	0702031	1	1
9100201	Grundschule Adelby	Flensburg	24943	Ringstraße	1 - 3	+49 461 852598	+49 461 851754	Schule-Adelby.Flensburg@schule.landsh.de	https://www.schule-adelby.flensburg.de	9.466322963121863	54.781563118822646	0702235	1	1
9100218	Paulus-Paulsen Schule  - FÖZ Lernen, Sprache, Emotionale und soziale Entwicklung	Flensburg	24943	Schulze-Delitzsch-Str.	2	+49 461 852543	+49 461 851649	Paulus-Paulsen-Schule.Flensburg@schule.landsh.de	https://www.pps.lernnetz.de	9.429457438594287	54.794217851021656	0703001	8	8
9100235	Friholtschule -FöZ geistige Entw.-	Flensburg	24943	Elbestraße	8	+49 461 852591	+49 461 851662	Friholtschule.Flensburg@schule.landsh.de	https://www.friholtschule.lernnetz.de	9.465425625835822	54.8012120826158	0703005	8	8
9100252	Max von der Grün-Schule  - Förderzentrum mit dem Schwerpunkt körperliche und motorische Entwicklung	Flensburg	24943	Elbestraße	10	+49 461 852068	+49 461 852458	Max-von-der-Gruen-Schule.Flensburg@schule.landsh.de	https://mvdg.lernnetz.de	9.464985752990438	54.802308830125355	0703006	8	8
9100265	Käte-Lassen-Schule, Gemeinschaftsschule der Stadt Flensburg in Flensburg	Flensburg	24943	Mommsenstraße	45	+49 461 852540	+49 461 851646	kaete-lassen-schule.flensburg@schule.landsh.de		9.450410953687445	54.78799796767819	0707006	1024	1024
9100280	Gemeinschaftsschule Flensburg-West, Gemeinschaftsschule der Stadt Flensburg in Flensburg	Flensburg	24937	Friesische Lücke	7	+49 461 852538	+49 461 851728	west.flensburg@schule.landsh.de	https://www.flensburg-west.de	9.421078618896983	54.77673266070322	0707003	1024	1024
9100297	Altes Gymnasium	Flensburg	24937	Selckstraße	1	+49 461 852902	+49 461 851726	Altes-Gymnasium.Flensburg@schule.landsh.de	https://www.altesgym.flensburg.de	9.42836540218856	54.78888297587959	0705000	32	32
9100314	Auguste-Viktoria-Schule	Flensburg	24937	Südergraben	34	+49 461 852048	+49 461 851718	auguste-viktoria-schule.flensburg@schule.landsh.de	https://www.auguste-viktoria-schule.de/	9.43050633197703	54.782429468906905	0705001	32	32
9100331	Fördegymnasium	Flensburg	24943	Elbestraße	10	+49 461 852599	+49 461 851645	Foerdegymnasium.Flensburg@schule.landsh.de	https://www.foerdegymnasium.de	9.464985752990438	54.802308830125355	0705002	32	32
9100348	Goethe-Schule	Flensburg	24943	Bismarckstraße	41	+49 461 852536	+49 461 851744	Goethe-Schule.Flensburg@schule.landsh.de	https://www.goethe.flensburg.de	9.442987126341288	54.78647128473458	0705003	32	32
9100365	Regionales Berufsbildungszentrum Flensburg - Eckener-Schule - rechtsfähige Anstalt des öffentlichen Rechts	Flensburg	24937	Friesische Lücke	15	+49 461 852531	+49 461 852143	RBZ-Eckener-Schule.Flensburg@schule.landsh.de	https://www.eckener-schule.de	9.41697503585348	54.77634353970246	0706000	128	128
9100382	Fachschule für Seefahrt Flensburg	Flensburg	24943	Kanzleistraße	91 - 93 - Gebäude B-15.1	+49 461 805-1900	+49 461 805-1909	Fachschule-fuer-Seefahrt.Flensburg@schule.landsh.de	https://www.seefahrtschule.eu	9.447366668880493	54.774748151468735	0706010	128	128
9100399	RBZ HLA - Die Flensburger Wirtschaftsschule  - rechtsfähige Anstalt des öffentlichen Rechts	Flensburg	24937	Marienallee	5	+49 461 852530	+49 461 85-2253	Handelslehranstalt.Flensburg@schule.landsh.de	https://www.hla-flensburg.de	9.420963711401104	54.783004276246125	0706021	128	128
9100416	RBZ HLA - Die Flensburger Wirtschaftsschule  - rechtsfähige Anstalt des öffentlichen Rechts - Außenstelle	Flensburg	24939	Am Schloßwall	3	+49 461 852594			https://www.hla.flensburg.de	9.429345093861327	54.79184128118013	0706021	128	128
9100429	RBZ HLA - Die Flensburger Wirtschaftsschule  - rechtsfähige Anstalt des öffentlichen Rechts - Außenstelle	Flensburg	24939	Schulgasse	4	+49 461 851911			https://www.hla.flensburg.de	9.422035150665113	54.799565660469234	0706021	128	128
9100442	Regionales Berufsbildungszentrum Flensburg Hannah-Arendt-Schule, rechtsfähige Anstalt des öffentlichen Rechts	Flensburg	24937	Friesische Lücke	17	+49 461 851600	+49 461 851650	Hannah-Arendt-Schule.Flensburg@schule.landsh.de	https://www.has-fl.de	9.417279656793168	54.775744202909586	0706036	128	128
9100459	Kurt-Tucholsky-Schule, Gemeinschaftsschule mit Oberstufe der Stadt Flensburg	Flensburg	24943	Richard-Wagner-Straße	41	+49 461 851350	+49 461 851378	Kurt-Tucholsky-Schule.Flensburg@schule.landsh.de	https://www.kts-flensburg.de	9.467865722881516	54.78634434544575	0707004	2048	2080
9100476	Fridtjof-Nansen-Schule, Gemeinschaftsschule mit Oberstufe der Stadt Flensburg in Flensburg	Flensburg	24943	Elbestraße	20	+49 461 852009	+49 461 851660	Fridtjof-Nansen-Schule.Flensburg@schule.landsh.de	https://www.fns-fl.de/	9.46086701924708	54.80399009264642	0707005	2048	2080
9100493	Comenius-Schule, Gemeinschaftsschule der Stadt Flensburg in Flensburg	Flensburg	24939	Drosselweg	12	+49 461 852582	+49 461 851727	Comenius-Schule.Flensburg@schule.landsh.de	https://www.comenius.flensburg.de	9.413760904369	54.80194157442104	0707002	1024	1024
9100510	Freie Waldorfschule Flensburg	Flensburg	24941	Valentiner Allee	1	+49 461 903250	+49 461 9032525	info@waldorfschule-flensburg.de	https://www.waldorfschule-flensburg.de	9.44387404	54.77090568	0799010	256	256
9100527	Ostseeschule Flensburg	Flensburg	24944	Klosterholzweg	30	+49 461 80724796	+49 461 80724797	info@ostseeschule-flensburg.de	https://www.ostseeschule-flensburg.de	9.464935554407322	54.81023403987557	0799011	256	256
9100544	Jörgensby-Skolen	Flensburg	24943	Schulgang	2-6	+49 461 41230		joegensby-skolen@skoleforeningen.org		9.448050032740529	54.78396337043856	0799800	256	256
9100559	Oksevejens Skolen	Flensburg	24941	Alter Husumer Weg	207	+49 461 9576100	+49 461 95761019	oksevejens.skole@skoleforeningen.org		9.394459789133336	54.7610190840509	0799801	256	256
9100574	Christian-Paulsen-Skolen	Flensburg	24937	Südergraben	36	+49 461 570740	+49 461 5707417	jens_salomonsen@skoleforeningen.de		9.430062435975104	54.78226796325249	0799802	256	256
9100589	Cornelius-Hansen-Skolen	Flensburg	24939	Alter Kupfermühlenweg	15	+49 461 41718	+49 461 470273	cornelius.hansen-skolen@skoleforeningen.org		9.419765498626285	54.803801963701055	0799803	256	256
9100604	Gustav-Johannsen-Skolen	Flensburg	24939	Eckenerstraße	9	+49 461 587170	+49 461 5871720	gustav.johannsen-skolen@skoleforeningen.org		9.41915001410599	54.79440134472469	0799856	256	256
9100619	Duborg-Skolen	Flensburg	24939	Ritterstraße	27	+49 461 144390	+49 461 1443999	duborg-skolen@skoleforeningen.org	https://www.duborg-skolen.de	9.429053615964666	54.79279748757553	0799858	256	256
9100636	Jens-Jessen-Skolen	Flensburg	24944	Mürwiker Straße	155 a	+49 461 37171	+49 461 3107784	jens.jessen-skolen@skoleforeningen.de		9.457929714155467	54.80648061679586	0799862	256	256
9100651	Wulf-Isebrand-Schule, Grundschule Albersdorf-Bunsoh, Schulverband Albersdorf	Albersdorf	25767	Wulf-Isebrand-Straße	2	+49 4835 9712-150	+49 4835 9712-199	wulf-isebrand-schule.albersdorf@schule.landsh.de		9.287703892323792	54.14371387953337	0702160	1	1
9100666	Wulf-Isebrand-Schule, Grundschule Albersdorf-Bunsoh, Schulverband Albersdorf - Außenstelle Bunsoh	Bunsoh	25767	Schulstraße	10	+49 4835 977600				9.326373741934654	54.170521469714785	0702160	1	1
9100677	Gemeinschaftsschule am Brutkamp, Gemeinschaftsschule des Schulverbandes Albersdorf	Albersdorf	25767	Brutkamp	14	04835 9712200	+49 4835 9712-249	Gemeinschaftsschule-am-Brutkamp.Albersdorf@schule.landsh.de	https://www.gemeinschaftsschule-am-brutkamp.de	9.289558092645045	54.14212190361052	0707205	1024	1024
9100694	Grundschule Bargenstedt-Schafstedt, Grundschule des Schulverbandes Meldorf und des Schulverbandes Albersdorf in Meldorf	Bargenstedt	25704	Klintweg	7	+49 4832 1464	+49 4832 6006027	Grundschule.Bargenstedt@schule.landsh.de		9.15298166045309	54.09597925817346	0702162	1	1
9100709	Grundschule Brunsbüttel-West	Brunsbüttel	25541	Bojestraße	30	+49 4852 391-900	+49 4852 391-905	Grundschule-West.Brunsbuettel@schule.landsh.de	https://grundschule-west-brunsbüttel.de	9.107256915288776	53.89611237998173	0702163	1	1
9100726	Boy-Lornsen-Grundschule Brunsbüttel	Brunsbüttel	25541	Schulstraße	2 - 4	+49 4852 391876	+49 4852 982070	Boy-Lornsen-Grundschule.Brunsbuettel@schule.landsh.de	https://www.boy-lornsen-grundschule.de	9.132263269007124	53.893656853118074	0702164	1	1
9100760	Schleusen-Gemeinschaftsschule, Gemeinschaftsschule der Stadt Brunsbüttel in Brunsbüttel	Brunsbüttel	25541	Kopernikusstraße	5-7	+49 4852 391840	+49 4852 391848	gemeinschaftsschule.Brunsbuettel@schule.landsh.de	https://www.gemeinschaftsschule-brunsbuettel.de	9.13770573431376	53.89914378210272	0707208	1024	1024
9100777	Schleusen-Gemeinschaftsschule, Gemeinschaftsschule der Stadt Brunsbüttel in Brunsbüttel - Außenstelle	Brunsbüttel	25541	Kopernikusstraße	1	+49 4852 549910			https://www.gemeinschaftsschule-brunsbuettel.de	9.126214556131679	53.90083843042057			
9100790	Gymnasium Brunsbüttel	Brunsbüttel	25541	Kopernikusstraße	1	+49 4852 391800	+49 4852 391825	Gymnasium.Brunsbuettel@schule.landsh.de	https://www.gymnasium-brunsbuettel.de	9.126214556131679	53.90083843042057	0705205	32	32
9100807	Aussenstelle  Buchholz-Kuden	Buchholz (Dithmarschen)	25712	Hopfenhof	9	+49 4825 2852	+49 4825 902571	Grundschule.Buchholz-Kuden@schule.landsh.de		9.225893875809193	53.985640593183476			
9100822	Geestdörfer Grundschule, Grundschule des Amtes Burg - St. Michaelisdonn in Burg mit Außenstelle in Süderhastedt	Burg (Dithmarschen)	25712	Bahnhofstraße	33	+49 4825 2249	+49 4825 923324	Grundschule.Burg@schule.landsh.de	https://www.gs-burg.de	9.258046895793923	54.001249596437034	0702169	1	1
9100856	Schule am Meer Büsum (Gymnasium mit Grund- und Gemeinschaftsschulteil)	Büsum	25761	Otto-Johannsen-Straße	17	+49 4834 749500	+49 4834 7495090	schule-am-meer.buesum@schule.landsh.de	https://www.schule-am-meer-buesum.de	8.854698666451307	54.13287886995554	0705200	32	1057
9100888	Grundschule am Klev Eddelak-Buchholz des Amtes Burg-St. Michaelisdonn in Eddelak	Eddelak	25715	Schulstraße	20	+49 4855 375	+49 4855 891914	Grundschule-am-klev.eddelak-buchholz@schule.landsh.de		9.150730650119018	53.95870823186733	0702174	1	1
9100903	Grundschule Elpersbüttel-Barlt, Grundschule des Schulverbandes Meldorf in Elpersbüttel	Elpersbüttel	25704	Donnstraße	1	+49 4832 4301	+49 4832 4301	Grundschule.Elpersbuettel@schule.landsh.de	https://www.grundschule.elpersbuettel.de	9.047477925151956	54.0720589942355	0702175	1	1
9100920	Grundschule Elpersbüttel-Barlt, Grundschule des Schulverbandes Meldorf in Elpersbüttel - Außenstelle Barlt	Barlt	25719	Schulstraße	15	+49 4857 266			https://www.grundschule.elpersbuettel.de	9.04628543762469	54.01928131473918	0702175	1	1
9100933	Außenstelle Schule am Wattenmeer, Friedrichskoog	Friedrichskoog	25718	Altfelder Weg	9	+49 4854 605	+49 4854 605	grundschule.friedrichskoog@Schule.LandSH.de		8.877730554564351	54.00318315813295			
9100948	Grundschule Lüttenheid in Heide	Heide	25746	Lüttenheid	32	+49 481 63344	+49 481 683088	Grundschule-Luettenheid.Heide@schule.landsh.de		9.096967059298176	54.1931468917684	0702179	1	1
9100963	St.-Georg-Schule, Grundschule der Stadt Heide in Heide	Heide	25746	Bürgermeister-Vehrs-Straße	13 - 15	+49 481 89146	+49 481 89147	St.-Georg-Schule.Heide@schule.landsh.de		9.10242485	54.20063657	0702182	1	1
9100978	Schulen am Moor, Heide	Heide	25746	Süderholmer Straße	65	+49 481 3907	+49 481 7870257	Schulen-am-Moor.Heide@schule.landsh.de		9.156843190748118	54.20281821591783	0702183	1	1
9100993	Schulen am Moor, Heide - Außenstelle Ostrohe	Ostrohe	25746	Spanngrund	9	+49 481 87267				9.127757588351962	54.21449266329757	0702183	1	1
9101004	Friedrich-Elvers-Schule, Förderzentrum mit dem Schwerpunkt Lernen, mit Außenstellen der Stadt Heide in Heide	Heide	25746	Friedrich-Elvers-Straße	14	+49 481 89154	+49 481 8561895	Friedrich-Elvers-Foerderzentrum.Heide@schule.landsh.de	https://friedrich-elvers-schule.lernnetz.de/	9.116726321372017	54.200228335614426	0703204	8	8
9101021	Friedrich-Elvers-Schule, Förderzentrum mit dem Schwerpunkt Lernen, mit Außenstellen der Stadt Heide in Heide - Außenstelle Hennstedt	Hennstedt (Dithmarschen)	25779	Schulstraße	29 - 31	+49 4836 381			https://www.foerderzentrum-heide.lernnetz.de	9.1650483	54.2880121	0703204	8	8
9101047	Friedrich-Elvers-Schule, Förderzentrum mit dem Schwerpunkt Lernen, mit Außenstellen der Stadt Heide in Heide - Außenstelle Wesselburen	Wesselburen	25764	Dohrnstraße	1	+49 4833 780	+49 4833 8571	foerderschule-wesselburen@t-online.de	https://www.foerderzentrum-heide.lernnetz.de	8.923795117395146	54.21628267010048	0703204	8	8
9101064	Friedrich-Elvers-Schule, Förderzentrum mit dem Schwerpunkt Lernen, mit Außenstellen der Stadt Heide in Heide - Außenstelle Tellingstedt	Tellingstedt	25782	Schulweg		+49 4838 7044922	+49 4838 703048	Friedrich-Elvers-Foerderzentrum.Tellingstedt@schule.landsh.de	https://www.foerderzentrum-heide.lernnetz.de	9.28012138	54.2196622	0703204	8	8
9101081	Klaus-Groth-Schule, Grund- und Gemeinschaftsschule der Stadt Heide in Heide	Heide	25746	Klaus-Groth-Straße	18 - 20	+49 481 62383	+49 481 63017	Klaus-Groth-Schule.Heide@schule.landsh.de	https://www.gsopdehost.de	9.09410458245183	54.19089779565254	0707206	1024	1025
9101098	Klaus-Groth-Schule, Grund- und Gemeinschaftsschule der Stadt Heide in Heide - Aussenstelle Loher Weg	Heide	25746	Loher Weg		+49 481 78315	+49 481 78316		https://schule-loher-weg.lernnetz.de	9.08326673	54.19269703			
9101113	Gemeinschaftsschule Heide-Ost, Gemeinschaftsschule der Stadt Heide in Heide	Heide	25746	Friedrich-Elvers-Straße	7	+49 481 8508630	+49 481 8508615	Gemeinschaftsschule-Heide-Ost.Heide@schule.landsh.de	https://gemeinschaftsschule-heide-ost.de	9.115089100342951	54.19889131199647	0707201	1024	1024
9101130	Werner-Heisenberg-Gymnasium, Heide	Heide	25746	Rosenstraße	41	+49 481 786910	+49 481 74055	Werner-Heisenberg-Gymnasium.Heide@schule.landsh.de	https://www.whg-heide.de	9.092189635858906	54.197683174483316	0705201	32	32
9101147	Gymnasium Heide-Ost	Heide	25746	Friedrich-Elvers-Straße	7	+49 481 8508650	+49 481 8508621	Gymnasium-Heide-Ost.Heide@schule.landsh.de	https://www.gymnasium-heide-ost.de	9.11508777	54.19889019	0705204	32	32
9101164	Regionales BerufsBildungsZentrum Dithmarschen, rechtsfähige Anstalt des öffentlichen Rechts	Meldorf	25704	Friedrichshöfer Straße	31	+49 4832 9030	+49 4832 903250	bbz-dithmarschen.meldorf@schule.landsh.de	https://www.bbz-dithmarschen.de	9.072800088210041	54.079587600549345	0706383	128	128
9101181	Regionales BerufsBildungsZentrum Dithmarschen, rechtsfähige Anstalt des öffentlichen Rechts - Außenstelle Brunsbüttel	Brunsbüttel	25541	Festgestraße	11			BBZ-Dithmarschen.Brunsbuettel@schule.landsh.de	https://www.bbz-dithmarschen.de	9.157874749891043	53.893108112682334			
9101194	Regionales BerufsBildungsZentrum Dithmarschen, rechtsfähige Anstalt des öffentlichen Rechts - Außenstelle Heide	Heide	25746	Waldschlößchenstraße	48 - 52	+49 481 85081-0	+49 481 85081-45	info@bbz-dithmarschen.de	https://www.bbz-dithmarschen.de	9.104002655845056	54.20291740192921			
9101211	Grundschulen des Schulträgerverbandes Heider Umland in Hemmingstedt	Hemmingstedt	25770	Bahnhofstraße	47	+49 481 63441	+49 481 61311	Grundschule.Hemmingstedt@schule.landsh.de	https://www.gshemmingstedt.lernnetz.de	9.08505733113991	54.15084807939294	0702186	1	1
9101243	Grundschulen des Schulträgerverbandes Heider Umland in Hemmingstedt - Außenstelle Lohe-Rickelshof	Lohe-Rickelshof	25746	Kirchenallee		+49 481 72399	+49 481 7870848		https://www.gs-lohe-rickelshof.de	9.07007333	54.18855852	0702186		
9101292	Reimer-Bull-Schule, Grund-und Gemeinschaftsschule des Amtes Marne-Nordsee in Marne	Marne	25709	Hafenstrasse	12	+49 4851 95970	+49 4851 959720	Grund-und-Gemeinschaftsschule.Marne@schule.landsh.de	https://www.rbs-marne.de	9.008413754444762	53.950185440398215	0707207	1024	1025
9101309	Reimer-Bull-Schule, Grund-und Gemeinschaftsschule des Amtes Marne-Nordsee in Marne - Außenstelle Diekhusen-Fahrstedt	Marne	25709	Wilhelmstraße	35	+49 4851 95970			https://www.rbs-marne.de	9.006305655324494	53.94979567042101			
9101322	Gymnasium Marne	Marne	25709	Bürgermeister-Plambeck-Straße	9	+49 4851 3083	+49 4851 8303	Gymnasium.Marne@schule.landsh.de	https://www.gymnasium-marne.de	9.00588137	53.95549329	0705202	32	32
9101339	Grundschule Meldorf	Meldorf	25704	Rosenstraße	36	+49 4832 601190	+49 4832 9439	Grundschule.Meldorf@schule.landsh.de	https://www.grundschule-meldorf.de	9.07625155	54.08852173	0702196	1	1
9101356	Förderzentrum Süderdithmarschen mit dem Schwerpunkt Lernen des Schulverbands Meldorf, der Stadt Brunsbüttel und des Amtes Marne-Nordsee in Meldorf	Meldorf	25704	Büttelsweg	2	+49 4832 6005920	+49 4832 60059220	fz-suederdithmarschen.meldorf@schule.landsh.de		9.068288380046715	54.09666550263432	0703207	8	8
9101371	Förderzentrum Süderdithmarschen mit dem Schwerpunkt Lernen des Schulverbands Meldorf, der Stadt Brunsbüttel und des Amtes Marne-Nordsee in Meldorf - Außenstelle Albersdorf - Carsten-Niebuhr-Schule	Albersdorf	25767	Wulf-Isebrand-Straße	2 a	+49 4835 9712100	+49 4835 971978	carsten-niebuhr-schule.albersdorf@schule.landsh.de		9.28770289	54.1437133	0703207	8	8
9101386	Astrid-Lindgren-Schule -FöZ für Geistige Entwicklung-	Meldorf	25704	Eescher Weg	69	+49 4832 95930	+49 4832 959333	Astrid-Lindgren-Schule.Meldorf@schule.landsh.de	https://www.astrid-lindgren-schule-meldorf.lernnetz.de	9.098441623531762	54.0905089263246	0703213	8	8
9101403	Gemeinschaftsschule des Schulverbandes Meldorf in Meldorf	Meldorf	25704	Weiderbaum	4	+49 4832 6011730	+49 4832 60117350	Gemeinschaftsschule.Meldorf@schule.landsh.de	https://www.gemeinschaftsschule-meldorf.lernnetz.de	9.0741341	54.09478147	0707202	1024	1024
9101420	Meldorfer Gelehrtenschule	Meldorf	25704	An den Anlagen	16	+49 4832 600490	+49 4832 6004919	Meldorfer-Gelehrtenschule.Meldorf@schule.landsh.de	https://www.mgs-meldorf.de	9.071619634705664	54.09442825244594	0705203	32	32
9101437	Grundschule Nordhastedt	Nordhastedt	25785	Hauptstraße	25	+49 4804 18110	+49 4804 181122	maria-jessen-schule.nordhastedt@schule.landsh.de	https://maria-jessen-schule.de	9.184618279200704	54.17212478920086	0702201	1	1
9101469	Grund- und Gemeinschaftsschule des Amtes Burg-St. Michaelisdonn in St. Michaelisdonn	Sankt Michaelisdonn	25693	Hoper Straße	6	+49 4853 1083	+49 4853 1267	Grund-und-Regionalschule.St.Michaelisdonn@schule.landsh.de	https://schule-st-michaelisdonn.de	9.122682619906703	53.99403731603542	0707209	1024	1025
9101486	Grund- und Gemeinschaftsschule des Amtes Burg-St. Michaelisdonn in St. Michaelisdonn - Außenstelle	Sankt Michaelisdonn	25693	Birkenstraße	9	+49 4853 80030	+49 4853 800333	Grund-und-Regionalschule.St.Michaelisdonn@schule.landsh.de	https://schule-st-michaelisdonn.de	9.119040241309673	53.99253884311904			
9101520	Grund- und Gemeinschaftsschule des Amtes Kirchspiellandgemeinden Eider in Tellingstedt	Tellingstedt	25782	Schulweg	4	+49 4838 704490	+49 4838 7044929	Grund-und-Gemeinschaftsschule.Tellingstedt@schule.landsh.de	https://ggs-tellingstedt.lernnetz.de	9.28012138	54.2196622	0707203	1024	1025
9101535	Grundschule des Schulträgerverbandes Heider Umland in Weddingstedt	Weddingstedt	25795	Alter Landweg	2	+49 481 87998	+49 481 4211764	Grundschule.Weddingstedt@schule.landsh.de		9.089543127118558	54.235840387163705	0702210	1	1
9101550	Watt'n Meer School, Grundschule des Schulverbandes Wesselburen in Wesselburen	Wesselburen	25764	Ekenesch	15	+49 4833 2128	+49 4833 424010	wattn-meer-school.wesselburen@schule.landsh.de	https://wattn-meer-school.de	8.917260790695138	54.21212961368399	0702212	1	1
9101567	Watt'n Meer School, Grundschule des Schulverbandes Wesselburen in Wesselburen - Außenstelle Neuenkirchen	Neuenkirchen	25792	Hauptstraße	24	+49 4837 433	+49 4837 902808	gsneuenkirchen@t-online.de	https://wattn-meer-school.de	8.996748753532247	54.23648387576078	0702212	1	1
9101584	Eider-Nordsee-Schule	Wesselburen	25764	Dohrnstraße	1	+49 4833 525	+49 4833 8571	eider-nordsee-schule.wesselburen@schule.landsh.de	https://eider-nordsee-schule.de	8.92379365	54.21628095	0707210	1024	1024
9101601	Grundschule des Grundschulträgerverbandes Heider Umland in Wesseln	Wesseln	25746	Holstenstraße	43	+49 481 72754	+49 481 7889455	Grundschule.Wesseln@schule.landsh.de		9.07496316	54.20859085	0702213	1	1
9101616	Freie Waldorfschule Wöhrden	Wöhrden	25797	Ringstraße	1	+49 4839 244	+49 4839 951067	info@waldorfschule-woehrden.de		8.997832609246725	54.16501749985551	0799300	256	256
9101629	Eiderschule	Dellstedt	25786	Schulstraße	18	+49 4802 846	+49 4802 751528	eiderschule.dellstedt@schule.landsh.de	https://www.eiderschule.info	9.380643498569562	54.21285821239966	0702218	1	1
9101644	Eiderschule - Außenstelle Pahlen	Pahlen	25794	Mühlenberg	49	+49 4803 366	+49 4803 601390	Eiderschule.Pahlen@schule.landsh.de	https://www.eiderschule.info	9.29960529227845	54.263098406912086	0702218	1	1
9101659	Schule am Stadtpark	Lübeck, Hansestadt	23568	Schulstraße	22	+49 451 12282611		Schule-am-Stadtpark.Luebeck@schule.landsh.de	https://grundschule-am-stadtpark.lernnetz.de/index.php/startseite.html	10.699984623553307	53.877937048470024	0702090	1	1
9101676	Bugenhagen-Schule	Lübeck, Hansestadt	23558	Moislinger Allee	32	+49 451 12280111	+49 451 12280190	Bugenhagen-Schule.Luebeck@schule.landsh.de	https://www.bugenhagen-grundschule.de	10.672649736272776	53.86084754043815	0702092	1	1
9101693	Dom-Schule	Lübeck, Hansestadt	23552	Domkirchhof	5 - 6	+49 451 122-80200	+49 451 122-80290	Dom-Schule.Luebeck@schule.landsh.de	https://www.dom-schule.de	10.686350972154328	53.86152191106122	0702094	1	1
9101710	Schule Falkenfeld	Lübeck, Hansestadt	23554	Helgolandstraße	5	+49 451 12280411	+49 451 12280490	Schule-Falkenfeld.Luebeck@schule.landsh.de		10.681782234170868	53.886724086059964	0702095	1	1
9101725	Grundschule Groß Steinrade	Lübeck, Hansestadt	23556	Drögeneck	3	+49 451 12280-610	+49 451 12280-690	Grundschule-Gross-Steinrade.Luebeck@schule.landsh.de		10.61676533	53.87968798	0702096	1	1
9101740	Kaland-Schule	Lübeck, Hansestadt	23564	Falkenstraße	5	+49 451 12280900		Kaland-Schule.Luebeck@schule.landsh.de	https://www.kaland-schule.de	10.696906028148636	53.86159434338779	0702097	1	1
9101772	Marien-Schule	Lübeck, Hansestadt	23552	Langer Lohberg	6 - 8	+49 451 12281400	+49 451 12281490	marien-schule.luebeck@schule.landsh.de	https://www.marienschule-luebeck.de	10.692265448645317	53.870932879394815	0702099	1	1
9101789	Mühlenweg-Schule, Grundschule der Hansestadt Lübeck in Lübeck	Lübeck, Hansestadt	23560	Moislinger Mühlenweg	56 - 58	+49 451 12281600	+49 451 80950620	Muehlenweg-Schule.Luebeck@schule.landsh.de		10.63453042908102	53.83923112234735	0702100	1	1
9101804	Aussenstelle Niederbüssau	Lübeck, Hansestadt	23560	Krummesser Landstraße	7	+49 451 12280800	+49 451 12280890	Grundschule-Niederbuessau.Luebeck@schule.landsh.de		10.63604579875693	53.806776063057356			
9101819	Grundschule Niendorf, Grundschule der Hansestadt Lübeck	Lübeck, Hansestadt	23560	Niendorfer Hauptstraße	17-21	+49 451 122-81711	+49 451 12281790	Grundschule-Luebeck-Niendorf.Luebeck@schule.landsh.de		10.609863301090883	53.832325923665266	0702102	1	1
9101834	Grundschule Schönböcken	Lübeck, Hansestadt	23556	Schönböckener Hauptstraße	18	+49 451 122-82500	+49 451 8132902	Grundschule-Schoenboecken.Luebeck@schule.landsh.de	https://www.grundschule-schoenboecken.de	10.62447296	53.8669167	0702103	1	1
9101851	Grundschule Utkiek	Lübeck, Hansestadt	23569	Utkiek	22	+49 451 12282810	+49 451 30771620	Grundschule-Utkiek.Luebeck@schule.landsh.de	https://schule-utkiek.de/startseite	10.802008526726484	53.90694788917047	0702105	1	1
9101866	Albert-Schweitzer-Schule, Grund- und Gemeinschaftsschule der Hansestadt Lübeck in Lübeck	Lübeck, Hansestadt	23566	Albert-Schweitzer-Straße	59	+49 451 12282900	+49 451 122829-90	Albert-Schweitzer-Schule.Luebeck@schule.landsh.de		10.728234753240192	53.86863489549564	0707110	1024	1025
9101881	Grundschule Eichholz	Lübeck, Hansestadt	23564	Bohlkamp	25	+49 451 122803-00	+49 451 122803-90	Grundschule-Eichholz.Luebeck@schule.landsh.de		10.74653509520327	53.84390476117995	0702112	1	1
9101898	Gotthard Kühl-Schule, Grund-und Gemeinschaftsschule der Hansestadt Lübeck in Lübeck,	Lübeck, Hansestadt	23556	Lortzingstraße	27	+49 451 122-83400	+49 451 122-83490	Gotthard-Kuehl-Schule.Luebeck@schule.landsh.de		10.65069222695457	53.867692390626786	0707115	1024	1025
9101913	Schule Grönauer Baum	Lübeck, Hansestadt	23562	Reetweg	5 - 7	+49 451 12280511	+49 451 12280590	Schule-Groenauer-Baum.Luebeck@schule.landsh.de		10.717036498677537	53.83789772423122	0702115	1	1
9101928	Kahlhorst-Schule	Lübeck, Hansestadt	23562	Kahlhorststraße	41	+49 451 122-80711	+49 451 122-80790	Kahlhorst-Schule.Luebeck@schule.landsh.de	https://www.kahlhorst-schule.de	10.688437565462827	53.85029422069611	0702116	1	1
9101945	Außenstelle Kücknitz	Lübeck, Hansestadt	23569	Kirchplatz	7	+49 451 1228089	+49 451 1228096			10.80630134	53.91291978			
9101960	Schule Lauerholz	Lübeck, Hansestadt	23568	Holzvogtweg 18		+49 451 12281111	+49 451 122811-90	Schule-Lauerholz.Luebeck@schule.landsh.de	https://www.grundschulelauerholz.lernnetz.de	10.71343394	53.89185984	0702119	1	1
9101977	Luther-Schule	Lübeck, Hansestadt	23558	Moislinger Allee	82	+49 451 122-81311	+49 451 87150920	Luther-Schule.Luebeck@schule.landsh.de	https://www.luther-schule.de	10.66776102	53.85592956	0702120	1	1
9101994	Schule Marli	Lübeck, Hansestadt	23566	Heinrichstraße	19 - 21	+49 451 12281511	+49 451 12281590	Schule-Marli.Luebeck@schule.landsh.de	https://www.schule-marli.lernnetz.de	10.713861361282792	53.87179124305529	0702121	1	1
9102041	Pestalozzi-Schule	Lübeck, Hansestadt	23554	Fackenburger Allee	71	+49 451 122-82111	+49 451 48152121	Pestalozzi-Schule.Luebeck@schule.landsh.de		10.662581742707674	53.87672076189708	0702125	1	1
9102056	Rangenberg-Schule	Lübeck, Hansestadt	23569	Rangenberg	74 - 76	+49 451 122-82300	+49 451 122-82390	Rangenberg-Schule.Luebeck@schule.landsh.de		10.78866009924475	53.90660303874445	0702126	1	1
9102071	Schule Roter Hahn, Lübeck	Lübeck, Hansestadt	23569	Schneidemühlstraße	1	+49 451 122824-00	+49 451 122824-90	Schule-Roter-Hahn.Luebeck@schule.landsh.de		10.818372831171128	53.91831961933034	0702127	1	1
9102101	Stadtschule Travemünde, Grundschule der Hansestadt Lübeck in Lübeck	Lübeck, Hansestadt	23570	Hirtengang	10	+49 451 122827-00	+49 451 122827-90	Stadtschule-Travemuende.Luebeck@schule.landsh.de		10.865271360871173	53.95722903162896	0702129	1	1
9102116	Schule Tremser Teich, Grund- und Gemeinschaftsschule der Hansestadt Lübeck	Lübeck, Hansestadt	23554	Am Behnckenhof	37	+49 451 122-84311	+49 451 122-84390	schule-tremser-teich.luebeck@schule.landsh.de	https://www.schule-tremser-teich.de	10.67750712832358	53.89448351875351	0707107	1024	1025
9102133	Paul-Gerhardt-Schule	Lübeck, Hansestadt	23554	Paul-Gerhardt-Straße	4 - 8	+49 451 12281800	+49 451 12281890	Paul-Gerhardt-Schule.Luebeck@schule.landsh.de	https://www.paul-gerhardt-schule-luebeck.de	10.659149019729641	53.887734390427134	0702132	1	1
9102150	Schule am Koggenweg	Lübeck, Hansestadt	23558	Koggenweg	1	+49 451 122810-00	+49 451 122810-90	Schule-am-Koggenweg.Luebeck@schule.landsh.de		10.640999752170623	53.85382121792861	0702134	1	1
9102165	Paul-Klee-Schule	Lübeck, Hansestadt	23562	Alexander Fleming Straße	6 - 12	+49 451 122-81911	+49 451 12281990	Paul-Klee-Schule.Luebeck@schule.landsh.de	https://paul-klee-schule-luebeck.de	10.6911563	53.8320106	0702135	1	1
9102182	Berend-Schröder-Schule	Lübeck, Hansestadt	23552	Langer Lohberg	24	+49 451 12286100	+49 451 12286190	Berend-Schroeder-Schule.Luebeck@Schule.LandSH.de	https://berend-schroeder-foerderzentrum.lernnetz.de	10.691625608423077	53.87019451234092	0703101	8	8
9102208	Astrid-Lindgren-Schule, Förderzentrum L, S, E, dk mit Aussenstelle KJPP	Lübeck, Hansestadt	23560	Brüder-Grimm-Ring	6-8	+49 451 12285911	+49 451 12285990	Astrid-Lindgren-Schule.Luebeck@schule.landsh.de	https://www.astrid-lindgren-schule-luebeck.de	10.65753645493055	53.8657428668273	0703103	8	8
9102225	Aussenstelle Pestalozzi-Schule	Lübeck, Hansestadt	23560	Fackenburger Allee	71	+49 451 12282111				10.627035574982449	53.844963710381336			
9102240	Schule Wilhelmshöhe	Lübeck, Hansestadt	23554	Schwartauer Allee	132	+49 451 12286611	+49 451 12286690	Schule-Wilhelmshoehe.Luebeck@schule.landsh.de	https://www.schule-wilhelmshoehe.de	10.6804212505359	53.88318783075967	0703107	8	8
9102257	Matthias-Leithoff-Schule	Lübeck, Hansestadt	23569	Haferkoppel	11	0451 122865-00	0451 122865-90	Matthias-Leithoff-Schule.Luebeck@schule.landsh.de		10.811600233093019	53.91148170703899	0703108	8	8
9102287	Maria-Montessori-Schule	Lübeck, Hansestadt	23556	Stellbrinkstraße	1	+49 451 12286400	+49 451 12286490	Maria-Montessori-Schule.Luebeck@schule.landsh.de	https://www.montessori-schule-hl.de	10.720206286592344	53.87292370586023	0703110	8	8
9102319	Julius-Leber-Schule, Gemeinschaftschule der Hansestadt Lübeck	Lübeck, Hansestadt	23554	Marquardplatz	7	+49 451 122837-11	+49 451 12283790	julius-leber-schule.luebeck@schule.landsh.de	https://julius-leber-schule-luebeck.de	10.671114422724846	53.871070711538664	0707105	1024	1024
9102353	Emanuel-Geibel-Schule	Lübeck, Hansestadt	23552	Glockengiesserstraße	33 - 37	+49 451 122-84711		Emanuel-Geibel-Schule.Luebeck@schule.landsh.de	https://www.Emanuel-Geibel-Schule.de	10.6911171	53.86921051	0707106	1024	1024
9102370	Holstentor-Gemeinschaftsschule	Lübeck, Hansestadt	23558	Wendische Straße	55	+49 451 12284900	+49 451 12284990	Holstentor-Gemeinschaftsschule.Luebeck@Schule.LandSH.de	https://www.holstentor-gemeinschaftsschule.de	10.659055810152857	53.85739451449875	0707109	1024	8192
9102387	Schule an der Wakenitz, Grund-und Gemeinschaftsschule der Hansestadt Lübeck	Lübeck, Hansestadt	23566	Dieselstraße	16	+49 451 12283111	+49 451 12283190	schule-an-der-wakenitz.luebeck@schule.landsh.de	https://www.schule-an-der-wakenitz.de	10.738121598806714	53.855883923064695	0707114	1024	1025
9102415	Grund-und Gemeinschaftsschule mit Oberstufe St. Jürgen der Hansestadt Lübeck in Lübeck	Lübeck, Hansestadt	23562	Mönkhofer Weg	95	+49 451 12283911	+49 451 12283990	ggs-stjuergen.luebeck@schule.landsh.de	https://www.ggs-stjuergen.de	10.694487075483284	53.84701845927407	0707104	2048	2081
9102432	Grund-und Gemeinschaftsschule mit Oberstufe St. Jürgen der Hansestadt Lübeck in Lübeck - Außenstelle	Lübeck, Hansestadt	23562	Mönkhofer Weg	95	+49 451 12284011	+49 451 58291220		https://www.ggs-stjuergen.de	10.699170226013926	53.8474556045298	0707104	2048	2049
9102447	Trave - Grund- und Gemeinschaftsschule in der Hansestadt Lübeck	Lübeck, Hansestadt	23569	Kücknitzer Hauptstraße	26	+49 451 12284100	+49 451 12284190	Trave-Grund-und-Gemeinschaftsschule.Luebeck@schule.landsh.de	https://www.tggs-luebeck.de	10.802491548491762	53.90852330467298	0707108	1024	1025
9102464	Schule am Meer, Grund- und Gemeinschaftsschule der Hansestadt Lübeck in Lübeck	Lübeck, Hansestadt	23570	Strandweg	1	+49 451 122830-00	+49 451 122830-90	schule-am-meer.luebeck@schule.landsh.de		10.87073073317757	53.96956647515869	0707116	1024	1025
9102479	Schule am Meer, Grund- und Gemeinschaftsschule der Hansestadt Lübeck in Lübeck - Außenstelle Schule Steenkamp	Lübeck, Hansestadt	23570	Steenkamp	32					10.872089361270039	53.969252163536176			
9102488	Heinrich-Mann-Schule, Grund- und Gemeinschaftsschule der Hansestadt Lübeck in Lübeck	Lübeck, Hansestadt	23560	Brüder-Grimm-Ring	6 - 8	+49 451 122-83600	+49 451 12283690	Heinrich-Mann-Schule.Luebeck@schule.landsh.de		10.627035574982449	53.844963710381336	0707103	1024	1025
9102503	Carl-Jacob-Burckhardt-Gymnasium, UNESCO-Projektschule	Lübeck, Hansestadt	23556	Ziegelstr.	38	+49 451 12285000	+49 451 12285090	cajabu.luebeck@schule.landsh.de	https://www.cajabu.de	10.655080714622999	53.8657630290153	0705100	32	32
9102520	Ernestinenschule	Lübeck, Hansestadt	23552	Kleine Burgstraße	24 - 26	+49 451 12285100	+49 451 12285190	ernestinenschule.Luebeck@schule.landsh.de	https://www.ernestinenschule.de	10.688625799797924	53.87200201052441	0705101	32	32
9102537	Johanneum zu Lübeck	Lübeck, Hansestadt	23552	Bei St. Johannis	1 - 3	+49 451 12285300	+49 451 12285390	Johanneum.Luebeck@schule.landsh.de	https://www.johanneum-luebeck.de	10.693332178096933	53.86689751572578	0705102	32	32
9102554	Katharineum zu Lübeck - Städtisches Gymnasium mit altsprachlichem Zweig	Lübeck, Hansestadt	23552	Königstraße	27 - 31	+49 451 12285400	+49 451 12285490	Katharineum.Luebeck@schule.landsh.de	https://www.katharineum.de	10.689042423246477	53.868837450787105	0705103	32	32
9102571	Oberschule zum Dom	Lübeck, Hansestadt	23552	Domkirchhof	1 - 3	0451 12285500	+49 451 12285590	Oberschule-zum-Dom.Luebeck@schule.landsh.de	https://www.ozd-luebeck.de	10.687043661379523	53.86100114025093	0705104	32	32
9102586	Thomas-Mann-Schule	Lübeck, Hansestadt	23564	Thomas-Mann-Straße	14	+49 451 12285700	+49 451 12285790	tms.luebeck@schule.landsh.de	https://www.thomas-mann-schule.de	10.712663223796158	53.86059268300101	0705105	32	32
9102603	Trave-Gymnasium	Lübeck, Hansestadt	23569	Kücknitzer Hauptstraße	26	+49 451 12285800	+49 451 12285890	trave-gymnasium.luebeck@schule.landsh.de	https://www.trave-gymnasium.de	10.802491548491762	53.90852330467298	0705107	32	32
9102620	Berufsschule der Handwerkskammer Lübeck	Lübeck, Hansestadt	23570	Wiekstraße	5	+49 4502 887400	+49 4502 887407	Berufsschule-der-Handwerkskammer.Luebeck@schule.landsh.de	https://www.bs-hwk-luebeck.de	10.886195059095831	53.95244504352956	0706171	128	128
9102637	Berufsschule der Handwerkskammer Lübeck - Außenstelle	Lübeck, Hansestadt	23562	Bessemerstraße	3	+49 451 5029100			https://www.bs-hwk-luebeck.de	10.697220655243765	53.83736556235776	0706171	128	128
9102650	Gewerbeschule Lübeck - Berufliche Schule der Hansestadt Lübeck	Lübeck, Hansestadt	23552	Parade	2	+49 451 122-87100	+49 451 12287190	Gewerbeschule.Luebeck@schule.landsh.de	https://www.gewerbeschule-luebeck.eu/	10.684895929185606	53.863038891988225	0706197	128	128
9102667	Gewerbeschule Lübeck - Berufliche Schule der Hansestadt Lübeck - Außenstelle	Lübeck, Hansestadt	23552	St.-Annen-Straße	4	+49 451 1228975			https://www.gewerbeschule-luebeck.eu	10.689041788385566	53.86326028733085	0706197	128	128
9102680	Gewerbeschule Lübeck - Berufliche Schule der Hansestadt Lübeck - Außenstelle	Lübeck, Hansestadt	23552	Breite Straße	10-12	+49 451 1506251			https://www.gewerbeschule-luebeck.eu	10.687945291185013	53.870669257848284	0706197	128	128
9102693	Emil-Possehl-Schule - Berufliche Schule der Hansestadt Lübeck	Lübeck, Hansestadt	23554	Georg-Kerschensteiner-Straße	27	+49 451 122-86900	+49 451 12286990	Emil-Possehl-Schule.Luebeck@schule.landsh.de	https://www.emil-possehl-schule.de	10.675649228475594	53.8829889019698	0706198	128	128
9102710	Hanse-Schule, Berufliche Schule der Hansestadt Lübeck für Wirtschaft und Verwaltung	Lübeck, Hansestadt	23552	Dankwartsgrube	14 - 22	+49 451 12287400	+49 451 122-87490	Hanse-Schule.Luebeck@schule.landsh.de	https://www.hanse-schule.de	10.683563125000019	53.862816039663656	0706226	128	128
9102727	Friedrich-List-Schule, Berufliche Schule der Hansestadt Lübeck -Wirtschaft-	Lübeck, Hansestadt	23554	Georg-Kerschensteiner-Straße	29	+49 451 122-86800	+49 451 122-86890	Friedrich-List-Schule.Luebeck@schule.landsh.de	https://www.listschule.de	10.67463228509587	53.88258952724293	0706240	128	128
9102744	Dorothea-Schlözer-Schule, Berufliche Schule  der Hansestadt Lübeck -Ernährung-Gesundheit-Sozialwesen	Lübeck, Hansestadt	23568	Jerusalemsberg	1 - 3	+49 451 12286711	+49 451 12286790	Dorothea-Schloezer-Schule.Luebeck@schule.landsh.de	https://www.dorothea-schloezer-schule.de	10.694581523697794	53.879270313173265	0706254	128	128
9102774	Schleswig-Holsteinische Seemannsschule	Lübeck, Hansestadt	23570	Wiekstraße	3 a	+49 4502 51520	+49 4502 515299	shs@seemannsschule.landsh.de	https://www.seemannsschule-priwall.de	10.8856586365513	53.951422975472134	0706274	128	128
9102791	Geschwister-Prenski-Schule, Gemeinschaftsschule mit Oberstufe der Hansestadt Lübeck in Lübeck	Lübeck, Hansestadt	23568	Travemünder Allee	5 a	+49 451 12284800	+49 451 12284890	Geschwister-Prenski-Schule.Luebeck@schule.landsh.de	https://www.prenski.de	10.696352402881377	53.87947117176609	0707113	2048	2080
9102808	Baltic-Schule, Grund- und Gemeinschaftsschule mit Oberstufe der Hansestadt Lübeck in Lübeck	Lübeck, Hansestadt	23558	Karavellenstraße	2 - 4	+49 451 12283211	+49 451 12283290	Baltic-Schule.Luebeck@schule.landsh.de	https://www.Baltic-Gesamtschule.de	10.647851173863284	53.85659413079559	0707112	2048	2081
9102825	Willy-Brandt-Schule, Grund- und Gemeinschaftsschule der Hansestadt Lübeck in Lübeck	Lübeck, Hansestadt	23568	Beim Meilenstein	2	+49 451 12284600	+49 451 12284690	Willy-Brandt-Schule.Luebeck@schule.landsh.de	https://wbs-luebeck.de	10.800066967432251	53.88928247084538	0707111	1024	9217
9102842	Otto-Mortzfeld-Schule	Lübeck, Hansestadt	23556	Beethovenstraße	20	+49 451 871710	+49 451 8717119	bzm@bzm.de	https://www.bzm.de	10.653180770588783	53.86835916745193	0799101	256	256
9102872	Gisa Feuerberg Schule, Schule für Heilerziehungspflege	Lübeck, Hansestadt	23552	Alfstr. 13		+49 451 4002138	+49 451 40256	gisafeuerbergschule@vorwerker-diakonie.de		10.681220334584062	53.89204948975111	0799107	256	256
9102883	Freie Waldorfschule Lübeck	Lübeck, Hansestadt	23566	Dieselstraße	18	+49 451 60994-0	+49 451 60994-33	info@fws-hl.de		10.741186930764481	53.856125411419214	0799108	256	256
9102898	Paul-Burwick-Schule, Förderzentrum	Lübeck, Hansestadt	23554	Triftstraße	139	+49 451 4002-50189	+49 451 4002-50169	paulburwickschule@vorwerker-diakonie.de		10.682256561500187	53.893313670427496	0799109	256	256
9102913	Ludwig Fresenius Schulen - Staatlich anerkannte Fachschule für Sozialpädagogik - Ersatzschule	Lübeck, Hansestadt	23569	Hochofenstraße	19 - 21	+49 451 304282	+49 451 306821	luebeck@die-schule.de		10.803081909701973	53.901432709069894	0799110	256	256
9102948	Grundschule Brokstedt mit Außenstelle Hennstedt	Brokstedt	24616	Schulstraße	11	+49 4324 88655	+49 4324 88656	Grundschule.Brokstedt@schule.landsh.de		9.826249428630819	53.99295153076537	0702893	1	1
9102963	Bürgerschule	Glückstadt	25348	Carl-Legien-Straße	1	+49 4124 930560	+49 4124 930566	Buergerschule.Glueckstadt@schule.landsh.de		9.421005108040482	53.792740145856804	0702894	1	1
9102993	Elbschule Glückstadt, Gemeinschaftsschule der Stadt Glückstadt in Glückstadt	Glückstadt	25348	Königsbergerstraße	6	+49 4124 930580	+49 4124 930588	Elbschule.Glueckstadt@schule.landsh.de		9.42180513	53.79679156	0707659	1024	1024
9103008	Detlefsengymnasium Glückstadt	Glückstadt	25348	Dänenkamp	5	+49 4124 91640	+49 4124 916444	Detlefsengymnasium.Glueckstadt@schule.landsh.de	https://www.detlefsengymnasium.de	9.433255341935972	53.79228480545494	0705700	32	32
9103025	Julianka-Schule	Heiligenstedten	25524	Julianka	14	+49 4821 74047	+49 4821 74048	Julianka-Schule.Heiligenstedten@schule.landsh.de		9.468687166367863	53.942717041708214	0702896	1	1
9103040	Außenstelle Hennstedt	Hennstedt (Steinburg)	25581	Schulstraße	17	+49 4877 241	+49 4877 241	Grundschule.Hennstedt@schule.landsh.de		9.71286517729329	54.03040216844278			
9103055	Schule am Deich - Standort Herzhorn bzw. Kollmar, Grundschule des Schulverbandes Glückstadt in Herzhorn	Herzhorn	25379	Hinterstraße	3	+49 4124 3941	+49 4124 609705	Grundschule.Herzhorn@schule.landsh.de	https://schule.glueckstadt.de/Schule-am-Deich	9.485029644552633	53.78737683992288	0702898	1	1
9103072	Grundschule Hohenaspe	Hohenaspe	25582	Schulstraße	1	+49 4893 463	+49 4893 15208	Grundschule.Hohenaspe@schule.landsh.de		9.527441918929622	53.989556037988386	0702899	1	1
9103087	Grundschule Hohenlockstedt	Hohenlockstedt	25551	Finnische Allee	16	+49 4826 370460	+49 4826 370469	Grundschule.Hohenlockstedt@schule.landsh.de	https://www.gs-holo.de	9.619430945739941	53.967675310374005	0702929	1	1
9103104	Förderzentrum Steinburg Nordost	Hohenlockstedt	25551	Birkenallee	11	+49 4826 850740	+49 4826 850741	Foerderzentrum-Steinburg-Nordost.Hohenlockstedt@schule.landsh.de	https://foez-steinburgnordost.lernnetz.de	9.6199671	53.96671875	0703701	8	8
9103121	Gemeinschaftsschule des Schulverbandes Hohenlockstedt, Wilhelm-Käber-Schule	Hohenlockstedt	25551	Birkenallee	9	+49 4826 731	+49 4826 748	wilhelm-kaeber-schule.hohenlockstedt@schule.landsh.de	https://wks-holo.lernnetz.de/	9.620713313360787	53.96670912022631	0707657	1024	1024
9103138	Grundschule Op de Host	Horst (Holstein)	25358	Birkenweg	19	+49 4126 39790	+49 4126 397919	Grundschule-Op-de-Host.Horst@schule.landsh.de	https://www.gsopdehost.de	9.615784599169018	53.81160345844484	0702930	1	1
9103153	Jacob-Struve-Schule, Gemeinschaftsschule des Schulverbandes Horst in Horst	Horst (Holstein)	25358	Heisterender Weg	19	+49 4126 38251	+49 4126 38246	Jacob-Struve-Schule.Horst@schule.landsh.de	https://www.jacob-struve-schule.de	9.622603040778422	53.81541725521488	0707651	1024	1024
9103170	Grundschule Edendorf	Itzehoe	25524	Obere Dorfstraße	8	+49 4821 404990	+49 4821 4049913	grundschule-edendorf.itzehoe@schule.landsh.de	https://www.grundschule-edendorf.de	9.49940544	53.95222884	0702903	1	1
9103187	Grundschule Sude-West	Itzehoe	25524	Ansgarstraße	10	+49 4821 17650	+49 4821 1765-12	Grundschule-Sude-West.Itzehoe@schule.landsh.de	https://www.gs-sude-west.de	9.49173924388698	53.936919400224205	0702904	1	1
9103204	Grundschule Wellenkamp	Itzehoe	25524	Kamper Weg	107	+49 4821 89630	+49 4821 896320	gsw.itzehoe@schule.landsh.de		9.484943525237421	53.90811297372166	0702905	1	1
9103255	Grundschule an der Schäferkoppel der Stadt Itzehoe	Itzehoe	25524	Schäferkoppel	2	+49 4821 40480	+49 4821 404822	Grundschule-an-der-Schaeferkoppel.Itzehoe@schule.landsh.de		9.519598773583553	53.941128731553704	0702908	1	1
9103272	Fehrs-Schule	Itzehoe	25524	Fehrsstraße	16	+49 4821 92042	+49 4821 92054	Fehrs-Schule.Itzehoe@schule.landsh.de	https://www.fehrs-schule.de	9.527684132011844	53.92517452920281	0702909	1	1
9103289	Gemeinschaftsschule der Stadt Itzehoe, Klosterhof-Schule	Itzehoe	25524	Hinterm Klosterhof	35	+49 4821 5415	+49 4821 5446	Klosterhof-Schule.Itzehoe@schule.landsh.de	https://klosterhof-schule.lernnetz.de/wordpress/	9.52120247	53.92476731	0707655	1024	1024
9103306	Pestalozzi-Schule Itzehoe, Förderzentrum mit dem Schwerpunkt Lernen	Itzehoe	25524	Schulstraße	16	+49 4821 685950	+49 4821 6859519	Pestalozzi-Schule.Itzehoe@Schule.LandSH.de	https://www.pesta-iz.lernnetz.de	9.501691411843685	53.92906964300849	0703702	8	8
9103321	Steinburg-Schule -FöZ-	Itzehoe	25524	Einhardstraße	39	+49 4821 73790	+49 4821 737922	Steinburg-Schule.Itzehoe@schule.landsh.de	https://www.steinburg-schule.de	9.488693033483738	53.936196936965885	0703706	8	8
9103338	Wolfgang-Borchert-Schule, Gemeinschaftsschule der Stadt Itzehoe in Itzehoe	Itzehoe	25524	Gorch-Fock-Straße	17	+49 4821 8040890	+49 4821 80408940	Schulleitung-Wolfgang-Borchert-Gemeinschaftsschule.Itzehoe@schule.landsh.de	https://wbs-itzehoe.de	9.513138136561155	53.93363920662755	0707660	1024	1024
9103355	Wolfgang-Borchert-Schule, Gemeinschaftsschule der Stadt Itzehoe in Itzehoe - Außenstelle Schule Sude	Itzehoe	25524	Schulstraße	16 - 18	+49 4821 4039890	+49 4821 40398918		https://www.wbr-itzehoe.lernnetz.de	9.501691411843685	53.92906964300849			
9103370	Gemeinschaftsschule der Stadt Itzehoe in Itzehoe, Gemeinschaftsschule am Lehmwohld	Itzehoe	25524	Am Lehmwohld	43	+49 4821 75023	+49 4821 717469	Gemeinschaftsschule-am-Lehmwohld.Itzehoe@schule.landsh.de	https://www.gemsal.de	9.509644304420236	53.937287476605	0707654	1024	1024
9103387	Auguste-Viktoria-Schule	Itzehoe	25524	Gr. Paaschburg	68	+49 4821 67410	+49 4821 674139	Auguste-Viktoria-Schule.Itzehoe@schule.landsh.de	https://www.avs-itzehoe.de	9.524644134609295	53.920084645951604	0705701	32	32
9103404	Kaiser-Karl-Schule	Itzehoe	25524	Hinterm Sandberg	1 - 3	+49 4821 2764	+49 4821 3210	Kaiser-Karl-Schule.Itzehoe@schule.landsh.de	https://www.kks-itzehoe.de	9.52210925	53.92472922	0705702	32	32
9103421	Sophie-Scholl-Gymnasium, Itzehoe	Itzehoe	25524	Am Lehmwohld	41	+49 4821 75021	+49 4821 75022	Sophie-scholl-gymnasium.itzehoe@schule.landsh.de	https://www.ssg-itzehoe.de	9.509644304420236	53.937287476605	0705703	32	32
9103438	Regionales Berufsbildungszentrum des Kreises Steinburg, rechtsfähige Anstalt des öffentlichen Rechts	Itzehoe	25524	Juliengardeweg	9	+49 4821 6830	+49 4821 68355	rbz-steinburg.Itzehoe@schule.landsh.de	https://www.rbz-itzehoe.de	9.516970024010682	53.932010898033255	0706685	128	128
9103483	Freie Waldorfschule Itzehoe	Itzehoe	25524	Am Kählerhof	4	+49 4821 89860	+49 4821 898612	fwi_buero@waldorfschule-itzehoe.de	https://www.waldorfschule-itzehoe.de	9.481471622426206	53.908942799341645	0799701	256	256
9103515	Grundschule Kellinghusen	Kellinghusen	25548	Otto-Ralfs-Straße	2 a	+49 4822 2440	+49 4822 2608	Grundschule.Kellinghusen@schule.landsh.de	https://www.grundschule-kellinghusen.de	9.723534455357436	53.95116432025443	0702931	1	1
9103532	Außenstelle Kellinghusen	Kellinghusen	25548	Otto-Ralf-Straße	1 a	+49 4822 2450	+49 4822 3333			9.72353488	53.95116496			
9103547	Gemeinschaftsschule mit Oberstufe der Stadt Kellinghusen in Kellinghusen	Kellinghusen	25548	Danziger Straße	40	+49 4822 376710	+49 4822 376715	Gemeinschaftsschule-mit-Oberstufe.Kellinghusen@schule.landsh.de	https://www.gms-kellinghusen.de	9.715364534424316	53.95599407169916	0707650	2048	2048
9103564	Grundschule Kiebitzreihe	Kiebitzreihe	25368	Schulstraße	65	+49 4121 5899	+49 4121 450348	Grundschule.Kiebitzreihe@schule.landsh.de	https://grundschulekiebitzreihe.lernnetz.de	9.600283622977896	53.77889499814363	0702912	1	1
9103596	Förderzentrum Steinburg Süd-West	Krempe	25361	Am Burggraben	10	+49 4824 400004	+49 4824 4000065	foerderzentrum-steinburg-suedwest.krempe@schule.landsh.de	https://www.schule-am-burggraben.de	9.493713059553276	53.836511378092425	0703704	8	8
9103613	Schulzentrum Krempermarsch, Grundschule des Schulverbandes Krempermarsch in Krempe	Krempe	25361	Am Burggraben	10	+49 4824 400004	+49 4824 391255	Schulzentrum-Krempermarsch.Krempe@schule.landsh.de	https://www.schulzentrum-krempermarsch.de	9.492489777911695	53.83616109715681	0702932	1	1
9103628	Schulzentrum Krempermarsch, Grundschule des Schulverbandes Krempermarsch in Krempe - Außenstelle	Krempe	25361	Am Kirchhof	33	+49 4824 411	+49 4824 391255			9.492489777911695	53.83616109715681	0707658		
9103641	Grundschule Kremperheide	Kremperheide	25569	Dorfstraße	24 - 26	+49 4821 82406	+49 4821 893674	Grundschule.Kremperheide@schule.landsh.de	https://www.grundschule-kremperheide.de	9.478761489449441	53.883201145708185	0702915	1	1
9103656	Liliencronschule Lägerdorf - Grundschule der Gemeinde Lägerdorf	Lägerdorf	25566	Liliencronstraße	18	+49 4828 301	+49 4828 1240	Liliencronschule.Laegerdorf@schule.landsh.de	https://www.liliencronschule.lernnetz.de	9.573267735380556	53.88914064500988	0702916	1	1
9103671	Grundschule auf der Geestinsel des Schulverbandes Münsterdorf-Dägeling in Münsterdorf	Münsterdorf	25587	Kirchenstraße	7	+49 4821 83490	+49 4821 407197	Grundschule.Muensterdorf@schule.landsh.de	https://www.grundschule-münsterdorf.de	9.541575309954263	53.9024695346681	0702917	1	1
9103688	Störtalcampus - Lernen in Bewegung, Grundschule der Gemeinde Oelixdorf in Oelixdorf	Oelixdorf	25524	Unterstraße	23	+49 4821 92560		Grundschule-am-Stoertal.Oelixdorf@schule.landsh.de	https://www.grundschuleoelixdorf.lernnetz.de	9.57108604	53.92543036	0702919	1	1
9103703	Grundschule Rethwisch	Rethwisch (Steinburg)	25566	Schinkeler Weg	2	+49 4828 212	+49 4828 901729	Grundschule.Rethwisch@schule.landsh.de	https://www.grundschule-rethwisch.de	9.57693877	53.86534002	0702920	1	1
9103735	Grund- und Gemeinschaftsschule des  Amtes Schenefeld in Schenefeld	Schenefeld (Steinburg)	25560	Rosenstieg	16	+49 4892 80380	+49 4892 803822	gugms.schenefeld@schule.landsh.de	https://ggs-schenefeld.de	9.47669640491055	54.0441504369322	0707652	1024	1025
9103752	Grundschule des Amtes Schenefeld in Wacken	Wacken	25596	Bokelrehmer Straße	51	+49 4827 677	+49 4827 932381	GS.Wacken@schule.landsh.de		9.826434367802658	53.992783856025156	0702924	1	1
9103784	Wolfgang-Ratke-Schule	Wilster	25554	Landrecht	45	+49 4823 8230	+49 4823 750336	wolfgang-ratke-schule.wilster@schule.landsh.de	https://www.wolfgang-ratke-schule.lernnetz.de	9.369178213272805	53.922021938684644	0702926	1	1
9103801	Gemeinschaftsschule des Schulverbandes Wilstermarsch in Wilster	Wilster	25554	Am Schulzentrum	3	+49 4823 337	+49 4823 92672	gemeinschaftsschule.wilster@schule.landsh.de	https://gems-wilster.jimdofree.com	9.368994208030104	53.923759209938346	0707653	1024	1024
9103818	Grundschule Wrist	Wrist	25563	Am Sportplatz		+49 4822 95133	+49 4822 95134	Grundschule.Wrist@schule.landsh.de	https://gswrist.lernnetz.de/	9.75312949	53.93226143	0702928	1	1
9103835	Adolf-Reichwein-Schule	Kiel	24149	Tiefe Allee	45	+49 431 22002400	+49 431 22002409	Adolf-Reichwein-Schule.Kiel@schule.landsh.de	https://www.adolf-reichwein-schule.lernnetz.de	10.186853563846082	54.33209443863845	0702040	1	1
9103852	Friedrich-Junge-Grundschule	Kiel	24116	Langenbeckstr.	65	+49 431 1227580	+49 431 9015169	Friedrich-Junge-Grundschule.Kiel@schule.landsh.de	https://www.friedrich-junge-grundschule-Kiel.de	10.10622676293275	54.32371272633285	0702041	1	1
9103869	Goetheschule-Grundschule	Kiel	24118	Hansastr. 25		+49 431 26042870	+49 431 26042879	goethe-grundschule.kiel@schule.landsh.de	https://www.ggs-kiel.de	10.124999	54.33440238	0702043	1	1
9103886	Hardenbergschule	Kiel	24105	Hardenbergstraße	9 - 11	+49 431 83281	+49 431 87101	hardenbergschule.kiel@schule.landsh.de	https://www.hardenbergschule-kiel.de/	10.13503697114958	54.34224554468686	0702044	1	1
9103903	Grundschule Kronsburg	Kiel	24145	Kuhlacker	30	+49 431 22001620	+49 431 22001629	Grundschule-Kronsburg.Kiel@schule.landsh.de	https://www.grundschule-kronsburg.de	10.143235191270385	54.28514560864448	0702045	1	1
9103918	Schule am Göteborgring - Grundschule	Kiel	24109	Göteborgring	50	+49 431 2007010	+49 431 2007015	GGS-Goeteborgring.Kiel@schule.landsh.de		10.063648043562624	54.32212764449932	0702047	1	8193
9103933	Schule am Heidenberger Teich	Kiel	24109	Skagenweg	25	+49 431 2609580	+49 431 26095810	Schule-am-Heidenberger-Teich.Kiel@schule.landsh.de	https://www.schuleamheidenbergerteich.de	10.046817686118388	54.32118164934089	0702048	1	8193
9103950	Muhliusschule, Grundschule der Landeshauptstadt Kiel in Kiel	Kiel	24103	Legienstraße	23	+49 431 556299	+49 431 554022	Muhliusschule.Kiel@schule.landsh.de	https://muhliusschule.lernnetz.de	10.131841379389083	54.326863761759974	0702049	1	1
9103967	Grundschule Russee	Kiel	24111	Russeer Weg	11	+49 431 26048610	+49 431 26048629	grundschule-russee.kiel@schule.landsh.de		10.067436804713894	54.30328446366846	0702050	1	1
9103982	Grundschule Schilksee	Kiel	24159	Schilkseer Straße	94	+49 431 22018360	+49 431 220183622	Grundschule-Schilksee.Kiel@schule.landsh.de	https://grundschule-schilksee.lernnetz.de	10.16755333463481	54.41396535214191	0702051	1	1
9103997	Uwe-Jens-Lornsen-Schule	Kiel	24113	Speckenbeker Weg	71	+49 431 65397	+49 431 65301	Uwe-Jens-Lornsen-Schule.Kiel@schule.landsh.de		10.0843353130017	54.29190122904153	0702053	1	1
9104012	Grundschule Wellsee	Kiel	24145	Schoolkamp	14	+49 431 26093070	+49 431 26093099	Grundschule-Wellsee.Kiel@schule.landsh.de	https://www.grundschule-wellsee.lernnetz.de	10.165191252338293	54.2880438453132	0702054	1	1
9104061	Fritz-Reuter-Schule	Kiel	24159	Fritz-Reuter-Straße	79 - 85	+49 431 220870	+49 431 2208729	fritz-reuter-schule.kiel@schule.landsh.de		10.168355752782203	54.39551093888056	0702061	1	1
9104076	Grundschule Fröbelschule	Kiel	24143	Iltisstraße 82		+49 431 76617	+49 431 75844	Froebelschule.Kiel@schule.landsh.de	https://www.froebelschule-kiel.lernnetz.de	10.1449276	54.30551665	0702062	1	1
9104091	Gerhart-Hauptmann-Schule -Grundschule-	Kiel	24148	Große  Ziegelstraße	62	+49 431 724980	+49 431 721089	gerhart-hauptmann-schule.kiel@schule.landsh.de		10.16415975	54.31200245	0702063	1	1
9104106	Gorch-Fock-Schule, offene Ganztagsschule	Kiel	24109	Melsdorfer Straße	53	+49 431 26040570	+49 431 521435	Gorch-Fock-Schule-GS.Kiel@schule.landsh.de	https://www.gofo.de	10.07358663468172	54.314673214256835	0702064	1	4097
9104123	Hans-Christian-Andersen-Stadtteilschule, Grundschule der Landeshauptstadt Kiel	Kiel	24143	Stoschstraße	24-26	+49 431 26042770	+49 431 26042799	Hans-Christian-Andersen-Schule.Kiel@schule.landsh.de		10.151363624322506	54.31046010317712	0702065	1	8193
9104138	Grund- und Gemeinschaftsschule der Stadt Kiel in Kiel, Hermann-Löns-Schule	Kiel	24147	Tiroler Ring	289	+49 431 26095760	+49 431 26095789	Hermann-Loens-Schule.Kiel@schule.landsh.de	https://www.hls-kiel.de	10.182471966273798	54.30206108381525	0707065	1024	1025
9104155	Grundschule Holtenau, Grundschule der Landeshauptstadt Kiel in Kiel	Kiel	24159	Richthofenstraße	14 - 16	+49 431 22003200	+49 431 22003229	Grundschule-Holtenau.Kiel@schule.landsh.de	https://www.schuleholtenau.lernnetz.de	10.141784017944323	54.37314466925154	0702068	1	1
9104172	Max-Tau-Grund- und Gemeinschaftsschule der Stadt Kiel	Kiel	24109	Odensestraße	6	+49 431 2609570	+49 431 26095746	Max-Tau-Schule.Kiel@schule.landsh.de	https://max-tau-kiel.de	10.051760887202008	54.31663116085706	0707066	1024	1025
9104204	Reventlouschule	Kiel	24105	Beselerallee	45 - 53	+49 431 566644	+49 431 578712	Reventlouschule.Kiel@schule.landsh.de	https://www.reventlouschule.lernnetz.de	10.136385688796762	54.33601653565138	0702072	1	1
9104221	Schule am Sonderburger Platz	Kiel	24106	Sonderburger Platz	1	+49 431 331411	+49 431 35766	Schule-am-Sonderburger-Platz.Kiel@schule.landsh.de	https://www.gs-sonderburgerplatz.lernnetz.de	10.129283285840687	54.358726629786574	0702073	1	1
9104238	Grundschule Suchsdorf	Kiel	24107	Schulweg	5	+49 431 22001370	+49 431 22001379	Grundschule-Suchsdorf.Kiel@schule.landsh.de		10.083020924969285	54.35687811185101	0702074	1	1
9104253	Theodor-Heuss-Schule	Kiel	24113	Rendsburger Landstraße	127 d	+49 431 22039810	+49 431 22039849	Theodor-Heuss-Schule.Kiel@schule.landsh.de	https://www.theodor-heuss-schule-kiel.de	10.101302224169727	54.3018188289251	0702075	1	1
9104287	Toni-Jensen-Grundschule	Kiel	24149	Poggendörper Weg	51	+49 431 2050846	+49 431 2050866	Toni-Jensen-Grundschule.Kiel@schule.landsh.de		10.19220167	54.33284991	0702078	1	8193
9104304	Johanna-Mestorf-Schule	Kiel	24145	Lütt Steenbusch	41 - 45	+49 431 705360	+49 431 7053611	johanna-mestorf-schule.kiel@schule.landsh.de	https://johanna-mestorf-schule.lernnetz.de	10.121811377744514	54.28244957453172	0702079	1	1
9104321	Schule am Göteborgring  -FöZ Lernen-	Kiel	24109	Gotlandwinkel	16	+49 431 2007020	+49 431 2007025	FS-Goeteborgring.Kiel@schule.landsh.de		10.063648043562624	54.32212764449932	0703050	8	8
9104336	Gutenbergschule Kiel  -FöZ Lernen-	Kiel	24116	Gutenbergstraße	61	+49 431 26091260	+49 431 26091289	gutenbergschule.kiel@schule.landsh.de	https://www.gutenbergschule-kiel.de	10.118633026675749	54.33218367288815	0703052	8	8
9104353	Matthias-Claudius-Schule Kiel	Kiel	24146	Dorfstraße	4 - 6	+49 431 783403	+49 431 7858759	Matthias-Claudius-Schule.Kiel@schule.landsh.de	https://www.matthias-claudius-schule-kiel.de	10.173871554560623	54.29513189086679	0702080	1	1
9104370	Andreas-Gayk-Schule, Förderzentrum Lernen der Landeshauptstadt Kiel	Kiel	24149	Tiefe Allee	45	+49 431 22002421	+49 431 22002429	andreas-gayk-schule.Kiel@schule.landsh.de	https://www.andreas-gayk-schule.lernnetz.de	10.18695888515956	54.33244110470682	0703054	8	8
9104419	Lilli-Nielsen-Schule, Förderzentrum körperliche und motorische sowie geistige Entwicklung der Landeshauptstadt Kiel	Kiel	24109	Vaasastraße	43	+49 431 5377004	+49 431 5377064	Lilli-Nielsen-Schule.Kiel@schule.landsh.de	https://www.lilli-nielsen-schule.de	10.048038558193687	54.324464697362124	0703062	8	8
9104436	Ellerbeker Schule, Förderzentrum mit dem Schwerpunkt geistige Entwicklung und Grundschule	Kiel	24148	Klausdorfer Weg	62	+49 431 3642020	+49 431 3642021	Ellerbeker-Schule.Kiel@schule.landsh.de	https://www.ellerbekerschule.de	10.169602662565177	54.3192491213914	0703063	8	9
9104451	Friedrich-Junge-Gemeinschaftsschule	Kiel	24116	Gellertstraße	46	+49 431 17007	+49 431 13952	Friedrich-Junge-Gemeinschaftsschule.Kiel@schule.landsh.de	https://fjskiel.de	10.10622676293275	54.32371272633285	0707059	1024	1025
9104468	Grund- und Gemeinschaftsschule der Stadt Kiel in Kiel, Klaus-Groth-Schule mit Grundschule	Kiel	24114	Winterbeker Weg	45	+49 431 26092930	+49 431 26092959	Klaus-Groth-Schule.Kiel@schule.landsh.de	https://www.klaus-groth-kiel.de	10.115241007611933	54.31002903032856	0707064	1024	1025
9104517	Lilli-Martius-Schule, Grund- und Gemeinschaftsschule der Landeshauptstadt Kiel in Kiel	Kiel	24146	Allgäuer Straße	30	+49 431 6006910	+49 431 60069169	Lilli-Martius-Schule.Kiel@schule.landsh.de	https://lms-kiel.com	10.193888083331565	54.29168996587015	0707057	1024	1025
9104532	Grund- und Gemeinschaftsschule am Brook, Grund- und Gemeinschaftsschule der Landeshauptstadt Kiel	Kiel	24143	Iltisstraße	82	+49 431 22001910	+49 431 22001929	Gemeinschaftsschule-am-Brook.Kiel@schule.landsh.de	https://www.gems-am-brook.de	10.144929575286149	54.30551528160942	0707053	1024	1025
9104549	Grund- und Gemeinschaftsschule der Landeshauptstadt Kiel in Kiel, Theodor-Storm-Gemeinschaftsschule	Kiel	24148	Danziger Straße	31	+49 431 60098330	+49 431 721005	Theodor-Storm-Gemeinschaftsschule.Kiel@schule.landsh.de	https://www.tsg-wellingdorf.de	10.175166497459465	54.32282021546933	0707054	1024	1025
9104583	Leif-Eriksson-Gemeinschaftsschule der Landeshauptstadt Kiel in Kiel	Kiel	24109	Vaasastraße	43	+49 431 5377002	+49 431 5377062	leg.kiel@schule.landsh.de		10.048038558193687	54.324464697362124	0707056	1024	9216
9104600	Ernst-Barlach-Gymnasium	Kiel	24106	Charles-Ross-Ring	53	+49 431 26048310	+49 431 26048339	ebg.kiel@schule.landsh.de	https://ebg-kiel.lernnetz.de	10.10663404	54.35896133	0705050	32	32
9104617	Hebbelschule, Gymnasium der Stadt Kiel - Europaschule	Kiel	24106	Feldstraße	177 - 179	+49 431 26048710	+49 431 26048729	Hebbelschule.Kiel@schule.landsh.de	https://www.hebbelschule-kiel.de	10.138454312224606	54.34854640924566	0705051	32	32
9104634	Humboldt-Schule	Kiel	24116	Knooper Weg	63	+49 431 26040370	+49 431 26040399	humboldt-schule.kiel@schule.landsh.de	https://www.humboldt-kiel.de	10.127191345210914	54.326180507853316	0705052	32	32
9104651	Käthe-Kollwitz-Schule	Kiel	24114	Paul-Fleming-Straße	1	+49 431 2604390	+49 431 26043939	Kaethe-Kollwitz-Schule.Kiel@schule.landsh.de	https://kks-kiel.info	10.116679774246451	54.31955694803769	0705053	32	32
9104664	Kieler Gelehrtenschule	Kiel	24105	Feldstraße	19	+49 431 567274	+49 431 562005	Kieler-Gelehrtenschule.Kiel@schule.landsh.de	https://www.kieler-gelehrtenschule.de	10.139125508154187	54.33152002502534	0705054	32	32
9104681	Max-Planck-Schule	Kiel	24114	Winterbeker Weg	1	+49 431 6499280	+49 431 64992899	Max-Planck-Schule.Kiel@schule.landsh.de	https://www.max-planck-schule-kiel.de	10.119075945070469	54.312116488238225	0705055	32	32
9104698	Ricarda-Huch-Schule	Kiel	24118	Hansastrasse	69 a	+49 431 26042810	+49 431 26042839	Ricarda-Huch-Schule.Kiel@schule.landsh.de	https://www.ricarda-huch.de	10.12389081	54.33767855	0705056	32	32
9104715	Hans-Geiger-Gymnasium	Kiel	24148	Poppenrade	53	+49 431 2203990	+49 431 22039939	Hans-Geiger-Gymnasium.Kiel@schule.landsh.de	https://hgg-kiel.de	10.161947050550463	54.308496912093254	0705057	32	8224
9104732	Gymnasium Wellingdorf	Kiel	24148	Schönberger Straße	67 - 73	+49 431 6007630	+49 431 60076333	Gymnasium-Wellingdorf.Kiel@schule.landsh.de	https://www.gymnasium-wellingdorf.de	10.179037493105685	54.3249979717446	0705058	32	32
9104749	Abendgymnasium im RBZ Wirtschaft der Landeshauptstadt Kiel (AöR) Europaschule	Kiel	24118	Westring	444	+49 431 1698400	+49 431 1698444	abendgymnasium.kiel@schule.landsh.de		10.12757687583064	54.34053486796708	0705059	32	32
9104766	Thor-Heyerdahl-Gymnasium	Kiel	24109	Vaasastraße 43		+49 431 5377003	+49 431 5377063	thor-heyerdahl-gymnasium.kiel@schule.landsh.de	https://www.thor-heyerdahl-gymnasium.de	10.04803627	54.32446588	0705060	32	32
9104783	Gymnasium Elmschenhagen	Kiel	24146	Allgäuer Straße	30	+49 431 668480	+49 431 6684818	gymnasium-elmschenhagen.kiel@schule.landsh.de	https://www.gymnasium-elmschenhagen.de	10.193888083331565	54.29168996587015	0705063	32	32
9104800	Regionales Berufsbildungszentrum am Schützenpark der Landeshauptstadt Kiel, rechtsfähige Anstalt öffentlichen Rechts, RBZ am Schützenpark	Kiel	24114	Westring	100	+49 431 1698300	+49 431 1698333	rbz1.kiel@schule.landsh.de	https://rbz-schuetzenpark.de/	10.111896045314712	54.319020102320344	0706087	128	128
9104847	Regionales Berufsbildungszentrum Wirtschaft der Landeshauptstadt Kiel, Rechtsfähige Anstalt öffentlichen Rechts	Kiel	24118	Westring	444	+49 431 1698400	+49 431 1698444	RBZ-Wirtschaft.Kiel@schule.landsh.de	https://www.bsravensberg.lernnetz.de/	10.12757687583064	54.34053486796708	0706133	128	128
9104864	Regionales Berufsbildungszentrum Wirtschaft der Landeshauptstadt Kiel, Rechtsfähige Anstalt öffentlichen Rechts - Außenstelle Ludwig-Erhard-Schule	Kiel	24114	Gellertstraße	18 d	+49 431 1698400	+49 431 1698444		https://www.bsravensberg.lernnetz.de/	10.111905132380265	54.31736508894786	0706133	128	128
9104879	Regionales Berufsbildungszentrum Technik der Landeshauptstadt Kiel, rechtsfähige Anstalt öffentlichen Rechts	Kiel	24143	Geschwister-Scholl-Straße	9	+49 431 1698600	+49 431 1698699	RBZ-Technik.Kiel@schule.landsh.de	https://www.rbz-technik.de	10.162662757055926	54.30674522060636	0706148	128	128
9104896	Gemeinschaftsschule Friedrichsort, Gemeinschaftsschule mit Oberstufe der Landeshauptstadt Kiel in Kiel	Kiel	24159	Steenbarg	10	+49 431 399023-0	+49 431 39902340	IGS-Friedrichsort.Kiel@schule.landsh.de	https://www.igf.de	10.167562957064984	54.391982432166685	0707061	2048	2080
9104913	Toni-Jensen-Gemeinschaftsschule, Gemeinschaftsschule mit Oberstufe der Landeshauptstadt Kiel in Kiel	Kiel	24149	Masurenring	6	+49 431 205080	+49 431 2050860	Toni-Jensen-Gemeinschaftsschule.Kiel@Schule.LandSH.de	https://www.tjg.lernnetz.de	10.19382571010564	54.336691146596614	0707063	2048	2080
9104930	Gemeinschaftsschule Hassee, Gemeinschaftsschule mit Oberstufe der Landeshauptstadt Kiel in Kiel	Kiel	24113	Rendsburger Landstraße	115	+49 431 364320	+49 431 36432135	Gemeinschaftsschule-Hassee.Kiel@schule.landsh.de	https://www.IGS-Hassee.de	10.103246927627517	54.303249319399406	0707062	2048	2080
9104947	Privatschule Düsternbrook eG Gemeinschaftsschule	Kiel	24105	Kiellinie	93	+49 431 2050880	+49 431 20508828	Privatschule@duesternbrook.de	https://www.duesternbrook.de	10.154214214450086	54.34385940720793	0799051	256	256
9104964	Kleemannschulen	Kiel	24106	Flintkampsredder	11	+49 431 3016211	+49 431 3016378	sekretariat@kleemannschulen.de	https://www.kleemannschulen.de	10.121751683543902	54.30638290708784	0799052	256	256
9104981	Kieler Institut für Gymnastik und Tanz GmbH	Kiel	24114	Boninstraße	10	+49 431 62140	+49 431 678487	info@kigt.de		10.122733583094066	54.317888188669116	0799059	256	256
9104996	Wirtschaftsakademie Schleswig-Holstein GmbH, Fachschule für Betriebswirtschaft	Kiel	24106	Hans-Detlev-Prien-Straße	10	+49 431 3016116	+49 431 3016378	ira.koban@wak-sh.de		10.12374821441062	54.360518623283895	0799067	256	256
9105011	Techniker-Fachschule Kiel gGmbH	Kiel	24106	Schleusenstraße	1 - 3	+49 431 339370	+49 431 30991	techniker@t-a-nord.de		10.130329033153991	54.361295962178914	0799069	256	256
9105024	Freie Waldorfschule Kiel	Kiel	24109	Hofholzallee	20	+49 431 53090	+49 431 5309151	schulbuero@waldorfschule-kiel.de		10.08933098	54.31957067	0799070	256	256
9105056	Rudolf-Steiner-Schule für Seelenpflegebedürftige Kinder Förderzentrum	Kiel	24113	Rendsburger Landstraße	129	+49 431 649540	+49 431 6495424	info@rudolf-steiner-schule-kiel.de	https://www.rudolf-steiner-schule-kiel.de	10.101119125195348	54.30117542334844	0799072	256	256
9105073	Fachschule Nord für anthroposophisch orientierte Heilerziehungspflege	Kiel	24113	Rendsburger Landstraße 129		+49 431 649540	+49 431 6495424	info@fachschule-nord.de	https://www.rudolf-steiner-schule-kiel.de	10.10102270279113	54.302086580854265	0799073	256	256
9105086	Christliche Schule Kiel	Kiel	24113	Diesterwegstraße	20-22	+49 431 260 9270	+49 431 260 92711	sekretariat@cskiel.de	https://www.cskiel.de	10.112862018304451	54.30182040404254	0799075	256	256
9105118	Lernwerft - Club of Rome Schule Kiel Grund- und Gemeinschaftsschule	Kiel	24159	Skagerrakufer	5	+49 431 5402870	+49 431 54028722	info@lernwerft.de	https://www.lernwerft.de/impressum/	10.175622332817069	54.39048366283066	0799080	256	1057
9105180	Gemeinschaftsschule mit Förderzentrum des Schulverbandes Mittleres Nordfriesland in Bredstedt	Bredstedt	25821	Süderstraße	79	+49 4671 6024120	+49 4671 60241249	Gemeinschaftsschule.Bredstedt@schule.landsh.de	https://gemeinschaftsschule-bredstedt.de	8.972423007579453	54.6123529843588	0707303	1024	1025
9105197	Bredstedt Danske Skole	Bredstedt	25821	Hermannstraße	8 a	+49 4671 91600	+49 4671 916015	bredsted.danske.skole@skoleforeningen.org	https://www.skoleforeningen.org/institutioner/bredsted-danske-skole/	8.96595554	54.61964719	0799807	256	256
9105231	Grundschule des Schulverbandes Mittleres Nordfriesland in Drelsdorf mit Außenstelle in Joldelund - Lüttschool Drelsdorf-Joldelund	Drelsdorf	25853	Karkenweg	22	+49 4671 2353	+49 4671 1008	Luett-School-Drelsdorf-Joldelund.Drelsdorf@schule.landsh.de	https://www.luettschool.de	9.039343262673718	54.60360670376444	0702333	1	1
9105248	Grundschule des Schulverbandes Mittleres Nordfriesland in Drelsdorf mit Außenstelle in Joldelund - Lüttschool Drelsdorf-Joldelund - Außenstelle Joldelund	Joldelund	25862	Schulstraße	4	+49 4673 415			https://www.drelsdorf.de/gemeinde/grundschule/	9.134595540190482	54.653247766962004			
9105276	Schule an der Treene, Grundschule in Friedrichstadt des Schulverbandes Friedrichstadt in Friedrichstadt - Grundschule Friedrichstadt	Friedrichstadt	25840	Ostdeutsche Straße	3	+49 4881 930420	+49 4881 87492	Schule-an-der-Treene.Friedrichstadt@schule.landsh.de	https://www.schule-an-der-treene.de	9.093947637370313	54.37781216946138	0702337	1	1
9105310	Hans Helgesen-Skolen	Friedrichstadt	25840	Schleswiger Straße	23	+49 4881 261	+49 4881 8413	Hans.helgesen-skolen@skoleforeningen.org		9.09805791281082	54.37646217311948	0799808	256	256
9105325	Theodor-Mommsen-Schule Garding mit Außenstelle Tetenbüll	Garding	25836	Marienstraße	14	+49 4862 201725	+49 4862 201713	Theodor-Mommsen-Schule.Garding@schule.landsh.de	https://www.tms-garding.de	8.781424368071033	54.33081300701395	0702413	1	1
9105342	Vestejdersteds Danske Skole	Garding, Kirchspiel	25836	Osterende	29	+49 4862 102933		pia_heide@skoleforeningen.de		8.7903473	54.33121916	0799809	256	256
9105383	Jens-Iwersen-Schule	Hattstedt	25856	Nordseestraße		+49 4846 236	+49 4846 1744	jens-iwersen-schule.hattstedt@schule.landsh.de		9.018320056438206	54.524863338441826	0702348	1	1
9105460	Bürgerschule Husum	Husum	25813	Asmussenstraße	1	+49 4841 82312	+49 4841 87920	Buergerschule.Husum@schule.landsh.de	https://www.buergerschule-husum.lernnetz.de	9.053005473143036	54.47949005935397	0702353	1	1
9105477	Klaus-Groth-Schule Husum mit Aussenstelle Bornschool Schobüll	Husum	25813	Richard-von-Hagn-Straße	40	+49 4841 74602	+49 4841 73013	klaus-groth-schule.husum@schule.landsh.de	https://www.Klaus-Groth-Schule-Husum.de	9.062863047819597	54.488961134437645	0702354	1	1
9105509	Iven-Agßen-Schule	Husum	25813	Otto-Backens-Weg	3	+49 4841 81915	+49 4841 87956	Iven-Agssen-Schule.Husum@schule.landsh.de	https://www.ias-husum.de	9.055348959910674	54.4684103526719	0702357	1	1
9105526	Pestalozzischule  -Förderzentrum Lernen-	Husum	25813	Schobüller Str.	38	+49 4841 6668450	+49 4841 773265	Pestalozzi-Schule.Husum@schule.landsh.de		9.071003572523296	54.478882289518154	0703352	8	8
9105543	Rungholtschule	Husum	25813	Hermann-Tast-Straße	62	+49 4841 83640	+49 4841 836434	Rungholtschule.Husum@schule.landsh.de		9.056354363738322	54.4868523815071	0703358	8	8
9105558	Gemeinschaftsschule Nord, Gemeinschaftsschule der Stadt Husum in Husum	Husum	25813	Brinckmannstraße	42	+49 4841 2852	+49 4841 4144	Gemeinschaftsschule-Nord.Husum@schule.landsh.de	https://gemeinschaftsschule-husum-nord.de	9.054096160593947	54.48286920249019	0707301	1024	1024
9105575	Ferdinand-Tönnies-Schule, Gemeinschaftsschule der Stadt Husum in Husum	Husum	25813	Flensburger Chaussee	32	+49 4841 73715	+49 4841 6668399	Ferdinand-Toennies-Schule.Husum@schule.landsh.de	https://www.fts-husum.de	9.07024013	54.48305504	0707300	1024	1024
9105592	Hermann-Tast-Schule	Husum	25813	Am Bahndamm	1	+49 4841 82111	+49 4841 3371	Hermann-Tast-Schule.Husum@schule.landsh.de	https://www.hermann-tast-schule.lernnetz.de/	9.05978192	54.47330545	0705350	32	32
9105609	Theodor-Storm-Schule	Husum	25813	Ludwig-Nissen-Straße	62	+49 4841 80560	+49 4841 805669	theodor-storm-schule.husum@schule.landsh.de	https://www.tss-husum.de	9.06238387309826	54.47557039862176	0705351	32	32
9105626	Berufliche Schule des Kreises Nordfriesland in Husum	Husum	25813	Herzog-Adolf-Straße	3	+49 4841 89950	+49 4841 8995129	BS-Nordfriesland.Husum@schule.landsh.de	https://www.bs-husum.de	9.055602313911931	54.47313563168827	0706440	128	128
9105643	Berufliche Schule des Kreises Nordfriesland in Husum - Außenstelle Garding	Garding, Kirchspiel	25836	Tatinger Straße	34	+49 4862 104000	+49 4862 8704		https://www.bs-husum.de	8.769902433134403	54.32811361139535	0706440	128	128
9105654	Berufliche Schule des Kreises Nordfriesland in Husum - Außenstelle Bredstedt	Bredstedt	25821	Theodor-Storm-Straße	2	+49 4671 913440	+49 4671 913419		https://www.bs-husum.de	8.96252983881892	54.61621743877962	0706440	128	128
9105669	Berufliche Schule des Kreises Nordfriesland in Husum - Außenstelle	Husum	25813	Hermann-Tast-Straße	10	+49 4841 800130			https://www.bs-husum.de	9.05525715483555	54.486763968722215	0706440	128	128
9105682	Husum Danske Skole	Husum	25813	Klaus-Groth-Straße	45	+49 4841 73610	+49 4841 74603	info@husumdanskeskole.org		9.065569642122012	54.4823656873701	0799828	256	256
9105697	Grundschule Klixbüll	Klixbüll	25899	Schulstraße	5	+49 4661 3514	+49 4661 9349947	grundschule.klixbuell@schule.landsh.de		8.894090871049473	54.80231125646553	0702359	1	1
9105729	Grundschule Ladelund-Achtrup,Grundschule des Schulverbandes Ladelund in Ladelund	Ladelund	25926	Schulstraße	13	+49 4666 239	+49 4666 989317	Grundschule.Ladelund@schule.landsh.de		9.03042375891377	54.841963964547475	0702361	1	1
9105744	Ladelund-Tinningsted Danske Skole	Ladelund	25926	Karlumer Straße	2	+49 4666 367		bjoern.egeskjold@skoleforeningen.de		9.008611714704314	54.84063559381025	0799813	256	256
9105757	Ladelund Ungdomsskole	Ladelund	25926	Karlumer Straße	1	+49 4666 714	+49 4666 853	ladelund.ungdomsskole@skoleforeningen.org		9.010518433885064	54.84075399561724	0799861	256	256
9105789	Friedrich-Paulsen-Schule, Grundschule des Schulverbandes Mittleres Nordfriesland in Langenhorn	Langenhorn	25842	An de School	1	+49 4672 77690	+49 4672 776922	Fps.langenhorn@schule.landsh.de	https://fps-langenhorn.lernnetz.de	8.933431916504414	54.68053907086365	0702362	1	1
9105806	Grundschule an der Linde Leck/ Enge Sande	Leck	25917	Eesackerstraße	7	+49 4662 2667	+49 4662 2648	grundschule.leck@schule.landsh.de		8.97148315764432	54.77540270441882	0702363	1	1
9105821	Außenstelle Leck	Leck	25917	Am Süderholz	13	+49 4662 3328	+49 4662 3358	schule-fes-leck@versanet.de		8.980964000623132	54.76816486329788			
9105836	Gemeinschaftsschule an der Lecker Au, Gemeinschaftsschule des Schulverbandes Karrharde in Leck	Leck	25917	Am Süderholz	13 a	+49 4662 891190	+49 4662 8911925	Gemeinschaftsschule.Leck@schule.landsh.de	https://gsl-karrharde.lernnetz.de	8.98134609397531	54.76844610060202	0707305	1024	1024
9105851	Laek Danske Skole	Leck	25917	Propst-Nissen-Weg	55	+49 4662 2403	+49 4662 70628	laek.danske.skole@skoleforeningen.org		8.981851293085253	54.77547284486003	0799814	256	256
9105864	List Danske Skole	List	25992	Alte Dorfstraße	20	+49 4652 870267	+49 4652 870267			8.430442027336449	55.021571252985304	0799815	256	256
9105877	Grund- und  Gemeinschaftsschule der Gemeinde Mildstedt in Mildstedt mit Außenstelle in Horstedt	Mildstedt	25866	Kirchenweg	6-10	+49 4841 66339-711	+49 4841 9178	Grund-und-Gemeinschaftsschule.Mildstedt@schule.landsh.de	https://www.schule-mildstedt.de	9.0977637	54.46012737	0707306	1024	1025
9105894	Öömrang-Skuul, Gemeinschaftsschule mit Grundschul- und Förderzentrumsteil des Amtes Föhr-Amrum in Nebel	Nebel	25946	Uasterstigh	49	+49 4682 2067	+49 4682 2061	Oeoemrang-Skuul.Nebel@schule.landsh.de	https://www.skuul.de	8.35887041	54.64503342	0707312	1024	1033
9105926	Emil-Nolde-Schule, Grund- und Gemeinschaftsschule Südtondern des Schulverbandes Südtondern-Nord, mit den	Neukirchen (Nordfriesland)	25927	Otzhusumweg	6	+49 4664 94010	+49 4664 940120	gug.Neukirchen@schule.landsh.de	https://www.emil-nolde-schule.com	8.73556337	54.8686959	0707314	1024	1025
9105956	Vidingherreds Danske Skole	Neukirchen (Nordfriesland)	25927	Beim Siel	5	+49 4664 228	+49 4664 983264			8.734440431551294	54.87385141319258	0799816	256	256
9105969	Alwin-Lensch-Schule	Niebüll	25899	Marktstraße	14	+49 4661 960510	+49 4661 960520	Alwin-Lensch-Schule.Niebuell@schule.landsh.de		8.822138105543875	54.7845894987175	0702370	1	1
9105984	Förderzentrum Südtondern mit den Standorten Leck und Niebüll	Niebüll	25899	Marktstraße	14	+49 4661 960530	+49 4661 960540	foerderzentrum-suedtondern.niebuell@schule.landsh.de		8.822138105543875	54.7845894987175	0703354	8	8
9105999	Carl-Ludwig-Jessen-Schule	Niebüll	25899	Ulmenweg		+49 4661 5152	+49 4661 941999	Carl-Ludwig-Jessen-Schule.Niebuell@schule.landsh.de	https://www.carl-ludwig-jessen-schule.lernnetz.de	8.81904926	54.77654741	0703359	8	8
9106016	Gemeinschaftsschule der Stadt Niebüll in Niebüll	Niebüll	25899	Uhlebüller Straße	15	+49 4661 930300	+49 4661 930329	Gemeinschaftsschule.Niebuell@schule.landsh.de	https://www.gemeinschaftsschule-niebuell.de	8.828537538171775	54.79417561823899	0707311	1024	1024
9106033	Friedrich-Paulsen-Schule, Gymnasium des Amtes Südtondern	Niebüll	25899	Friedrich-Paulsen-Straße	5	+49 4661 96280	+49 4661 962828	Friedrich-Paulsen-Schule.Niebuell@schule.landsh.de	https://www.fps-niebuell.de	8.82400244561699	54.78696016399231	0705352	32	32
9106050	Berufliche Schule des Kreises Nordfriesland in Niebüll	Niebüll	25899	Uhlebüller Straße	15	+49 4661 930100	+49 4661 930199	BS-Niebuell.Niebuell@schule.landsh.de	https://www.bs-niebuell.de	8.828537538171775	54.79417561823899	0706468	128	128
9106067	Berufliche Schule des Kreises Nordfriesland in Niebüll - Außenstelle	Niebüll	25899	Rathausstraße	21	+49 4661 8777			https://www.bs-niebuell.de	8.830220483958664	54.78837481149039	0706468	128	128
9106080	Berufliche Schule des Kreises Nordfriesland in Niebüll - Außenstelle Westerland	Sylt	25980	St.Nicolai-Straße	6	+49 4651 8364640	+49 4651 8364643		https://www.bs-niebuell.de	8.308806	54.9066255	0706468	128	128
9106095	Niböl Danske Skole	Niebüll	25899	Osterweg	67	+49 4661 3342	+49 4661 941344	niboel.danske.skole@skoleforeningen.org		8.825417278602622	54.78142403808343	0799817	256	256
9106125	Insel un Halligschool Nordstrand, Grund- und Gemeinschaftsschule der Gemeinde Nordstrand mit den Außenstellen Langeneß und Nordstrandischmoor	Nordstrand	25845	Schulweg	4	+49 4842 287	+49 4842 900701	Herrendeichschule.Nordstrand@schule.landsh.de	https://www.herrendeichschule-nordstrand.de	8.871648721726707	54.47837849887688	0707310	1024	1025
9106183	Otto-Thiesen-Schule	Ostenfeld (Husum)	25872	Süderweg	35	+49 4845 378	+49 4845 527	Otto-Thiesen-Schule.Ostenfeld@schule.landsh.de	https://otto-thiesen-schule.lernnetz.de/	9.241258353473949	54.460152040433	0702378	1	1
9106198	Grundschule Oster-Ohrstedt	Oster-Ohrstedt	25885	Schulstr.	1	+49 4847 411	+49 4847 405	Grundschule.Ohrstedt@schule.landsh.de	https://www.gs-ohrstedt.de	9.208520405465583	54.5133025573774	0702379	1	1
9106215	Hermann-Neuton-Paulsen-Schule Grund- und Gemeinschaftsschule	Pellworm	25849	Schulstraße	11	+49 4844 328	+49 4844 9904811	Hermann-Neuton-Paulsen-Schule.Pellworm@schule.landsh.de	https://www.schule-pellworm.de	8.65186512	54.52268028	0707313	1024	1025
9106230	Grundschule Rantrum	Rantrum	25873	Bannony	2	+49 4848 850	+49 4848 902290	Grundschule.Rantrum@schule.landsh.de		9.124587831158985	54.44058308896455	0702380	1	1
9106245	Grundschule Risum-Lindholm der Gemeinde Risum-Lindholm	Risum-Lindholm	25920	Dorfstraße	260	+49 4661 90250	+49 4661 902529	Grundschule.Risum-Lindholm@schule.landsh.de		8.88042234	54.76644488	0702384	1	1
9106277	Risum Skole / Risem Schölj, Risum-Lindholm	Risum-Lindholm	25920	Dorfstraße	91	+49 4661 8387	+49 4661 6498	risum.skole@skoleforeningen.org		8.846492249173734	54.751599166853424	0799818	256	256
9106292	Utholm-Schule Grundschule des Schulverbandes Eiderstedt in St. Peter-Ording	Sankt Peter-Ording	25826	Kirchenleye	7	+49 4863 9146	+49 4863 9148	Utholm-Schule.St.Peter-Ording@schule.landsh.de		8.629987817960147	54.30817302134902	0702386	1	1
9106307	Nordseeschule, Gymnasium mit Gemeinschaftsschulteil des Schulverbandes Eiderstedt, Europaschule	Sankt Peter-Ording	25826	Pestalozzistraße	62 - 70	+49 4863 47550	+49 4863 475527	Nordseegymnasium.St.Peter-Ording@schule.landsh.de	https://www.nordseegymnasium.de	8.6496765404699	54.29411685904198	0705353	32	1056
9106358	Grundschule Föhr-Land, Grundschule des Amtes Föhr - Amrum in Süderende	Süderende	25938	Am Haag	4a	+49 4683 204	+49 4683 963434	Grundschule-Foehr-Land.Suederende@schule.landsh.de		8.43931148073153	54.726182512398545	0702395	1	1
9106369	Grundschule Föhr-Land, Grundschule des Amtes Föhr - Amrum in Süderende - Außenstelle Föhr-Ost	Midlum	25938	Schulweg	20	+49 4681 2821				8.521592759562305	54.71235387891683	0702395	1	1
9106380	Grundschule Süderlügum	Süderlügum	25923	Schulstraße	15	+49 4663 349	+49 4663 328	Grundschule.Suederluegum@schule.landsh.de	https://grundschule-suederluegum.de/	8.905764411929043	54.873591807452755	0702396	1	1
9106414	Boy-Lornsen-Grundschule  - Grundschule in Tinnum -	Sylt	25980	Boy-Peter-Eben-Weg	2			Boy-Lornsen-Schule.Sylt@schule.landsh.de		8.32465357	54.89942829	0702400	1	1
9106442	Schule am Ostertor - Grundschule der Stadt Tönning in Tönning	Tönning	25832	Hochsteg	26	+49 4861 96800	+49 4861 968013	Schule-am-Ostertor.Toenning@schule.landsh.de	https://www.schule-am-ostertor.de/	8.945613238480282	54.31934557720468	0702404	1	1
9106459	Eider-Treene-Schule	Tönning	25832	Badallee	14	+49 4861 61000	+49 4861 610018	eider-treene-schule.toenning@schule.landsh.de	https://www.ets-toenning.de	8.935167240758053	54.31181475231423	0707304	2048	2080
9106476	Uffe-Skolen	Tönning	25832	Herzog-Philipp-Allee	3 a	+49 4861 236	+49 4861 9162	uffe-skolen@skoleforeningen.org		8.939563856323305	54.32095088397864	0799821	256	256
9106491	Grund- und Gemeinschaftsschule des Schulverbandes Viöl in Viöl mit Außenstelle in Haselund	Viöl	25884	Gartenstraße	4 - 8	+49 4843 20810	+49 4843 208181	Grund-und-Gemeinschaftsschule.Vioel@schule.landsh.de	https://www.gems-voh.de	9.179209202315405	54.5710185803786	0707302	1024	1025
9106508	Norddörferschule Wenningstedt	Wenningstedt-Braderup (Sylt)	25996	Norderweg	2	+49 4651 42276	+49 4651 446445	norddoerferschule.wenningstedt@schule.landsh.de		8.334920256109704	54.94224206207588	0702406	1	1
9106525	Schule St. Nicolai, mit dem Standort Am Nordkamp, Grundschule mit Förderzentrumsteil der Gemeinde Sylt in Sylt	Sylt	25980	St.Nicolai-Straße	6	+49 4651 22311	+49 4651 299408	schule-st-nicolai.westerland@schule.landsh.de	https://www.st-nicolai.lernnetz.de	8.30803308207876	54.90639229326148	0702407	1	9
9106608	Schulzentrum Sylt, Gymnasium mit Gemeinschaftsschulteil des Schulverbandes Sylt	Sylt	25980	Tonderner Straße	12	+49 4651 9574310	+49 4651 9574311	gym.sz-sylt@schule.landsh.de	https://www.gymnasium-sylt.de	8.313376652657617	54.91777494229541	0705354	32	1056
9106625	Sild Danske Skolen	Sylt	25980	Deckerstraße	31 - 33	+49 4651 24718	+49 4651 201364	sild.danske.skole@skoleforeningen.org		8.31605069	54.91066316	0799823	256	256
9106640	Lütt Dörp School Witzwort-Schwabstedt	Witzwort	25889	Kirchenweg	2	+49 4864 684	+49 4864 271625	Luett-Doerp-School.witzwort@schule.landsh.de		8.986592254663774	54.39898817106475	0702410	1	1
9106655	Rüm-Hart-Schule	Wyk auf Föhr	25938	Süderstraße	24	+49 4681 2666	+49 4681 50380	ruem-hart-schule.wyk-foehr@schule.landsh.de	https://ruem-hart-schule.lernnetz.de	8.56749889	54.68895072	0702411	1	9
9106687	Eilun Feer Skuul, Gymnasium und Gemeinschaftsschule des Amtes Föhr-Amrum in Wyk auf Föhr	Wyk auf Föhr	25938	Rebbelstieg	59	+49 4681 4440	+49 4681 5338	Eilun-Feer-Skuul.Wyk-Foehr@schule.landsh.de	https://www.gymnasium-foehr.de	8.557485729637989	54.692073589566675	0705355	32	1056
9106704	Vyk Danske Skole	Wyk auf Föhr	25938	Feldstraße	38	+49 4681 593120	+49 4681 593121	vyk.danske.skole@skoleforeningen.org		8.561450929835111	54.68901968967718	0799824	256	256
9106719	Außenstelle Faldera	Neumünster	24537	Franz-Wieman-Straße	18 a	+49 4321 2521640	+49 4321 968456			9.961457052184032	54.065890990692786			
9106734	Schule Gadeland	Neumünster	24539	Norderstraße	1	+49 4321 9425210	+49 4321 9425209	Grundschule-Gadeland.Neumuenster@schule.landsh.de		10.022313621313772	54.05342081877194	0702142	1	1
9106749	Gartenstadtschule	Neumünster	24537	Nachtredder	69	+49 4321 9425110	+49 4321 9425109	Gartenstadtschule.Neumuenster@schule.landsh.de	https://gartenstadtschule.lernnetz.de/	9.968184935742714	54.09032097044253	0702143	1	1
9106766	Hans-Böckler-Schule, Grund- und Gemeinschaftsschule der Stadt Neumünster in Neumünster	Neumünster	24537	Elchweg	1 - 3	+49 4321 9424610	+49 4321 9424609	Hans-Boeckler-Schule.Neumuenster@schule.landsh.de	https://www.hbs-nms.de	9.953284578301428	54.07784549427973	0707153	1024	1025
9106783	Johann-Hinrich-Fehrs-Schule	Neumünster	24534	Wilhelmstraße	8 - 16	04321 9425310	+49 4321 9425309	Johann-Hinrich-Fehrs-Schule.Neumuenster@schule.landsh.de	https://www.fehrsschule.de	9.97488223160193	54.0723595417415	0702145	1	1
9106800	Mühlenhofschule	Neumünster	24534	Mühlenhof	22	+49 4321 9425360	+49 4321 9425359	Muehlenhofschule.Neumuenster@schule.landsh.de		9.98135457128016	54.06936615916765	0702146	1	1
9106815	Pestalozzischule, Grundschule der Stadt Neumünster in Neumünster	Neumünster	24536	Am Kamp	1	+49 4321 9425660	+49 4321 9425659	Pestalozzischule.Neumuenster@schule.landsh.de	https://www.pestalozzischule.neumuenster.de	9.9961046	54.09939561	0702155	1	1
9106832	Rudolf-Tonner-Schule	Neumünster	24536	Preußerstraße	6	+49 4321 9425410	+49 4321 9425409	Rudolf-Tonner-Schule.Neumuenster@schule.landsh.de	https://www.rts.neumuenster.de	9.99521005880993	54.09074883854033	0702148	1	1
9106849	Timm-Kröger-Schule Neumünster	Neumünster	24536	Hauptstraße	56	+49 4321 9425460	+49 4321 9425459	Timm-Kroeger-Schule.Neumuenster@schule.landsh.de		10.006083625819596	54.07659100541535	0702150	1	1
9106864	Grundschule an der Schwale, Grundschule der Stadt Neumünster in Neumünster	Neumünster	24537	Uker Platz		+49 4321 9425160	+49 4321 968459	Grundschule-an-der-Schwale.Neumuenster@schule.landsh.de	https://grundschule-schwale.neumuenster.de	9.94943362	54.05851154	0702151	1	1
9106881	Vicelinschule	Neumünster	24534	Vicelinstraße	51	+49 4321 9425510	+49 4321 9425509	Vicelinschule.Neumuenster@schule.landsh.de	https://www.vicelin.neumuenster.de	9.985888456799412	54.08082848622254	0702152	1	1
9106913	Grundschule Wittorf	Neumünster	24539	Lindenstraße	1	+49 4321 9425260	+49 4321 9425259	Grundschule-Wittorf.Neumuenster@schule.landsh.de		9.967606396335876	54.056439165023356	0702154	1	1
9106928	Gustav-Hansen-Schule	Neumünster	24539	Dithmarscher Straße	6	+49 4321 9425710	+49 4321 9425709	Gustav-Hansen-Schule.Neumuenster@schule.landsh.de	https://foerderzentren.neumuenster.de/ghs/	9.994077776137821	54.06215466258187	0703150	8	8
9106962	Fröbelschule, Förderzentrum mit Schwerpunkten geistige Entwicklung und Lernen der Stadt Neumünster in Neumünster	Neumünster	24537	Flensburger Straße	9	+49 4321 9425760	+49 4321 9425759	Froebelschule.Neumuenster@schule.landsh.de		9.950952009893673	54.05857757129889	0703154	8	8
9106975	Freiherr-vom-Stein-Schule, Gemeinschaftsschule der Stadt Neumünster in Neumünster	Neumünster	24536	Schillerstraße	24	+49 4321 9424360	+49 4321 9424359	Freiherr-vom-Stein-Schule.Neumuenster@schule.landsh.de	https://www.steinschule-nms.de	9.997318367162245	54.08155174847488	0707152	1024	1024
9107007	Grund- und  Gemeinschaftsschule Einfeld, Grund- und Gemeinschaftsschule der Stadt Neumünster in Neumünster	Neumünster	24536	Dorfstrasse	21	+49 4321 9424310	+49 4321 9424309	GGS-Einfeld.Neumuenster@schule.landsh.de	https://www.ggs-einfeld.de	9.991488642742045	54.12620230534388	0707156	1024	1025
9107024	Grund- und  Gemeinschaftsschule Einfeld, Grund- und Gemeinschaftsschule der Stadt Neumünster in Neumünster - Außenstelle	Neumünster	24536	Einfelder Straße	36	+49 4321 520304			https://ghs-einfeld.lernnetz.de	9.992423319476119	54.127610568741645			
9107039	Wilhelm-Tanck-Schule, Gemeinschaftsschule der Stadt Neumünster in Neumünster	Neumünster	24534	Färberstraße	25	+49 4321 9424560	+49 4321 179805	Wilhelm-Tanck-Schule.Neumuenster@schule.landsh.de		9.97541373412076	54.076843954288485	0707157	1024	1024
9107054	Holstenschule	Neumünster	24534	Altonaer Straße	40	+49 4321 9424160	+49 4321 9424159	Holstenschule.Neumuenster@schule.landsh.de	https://holstenschule.de	9.986703016723233	54.06623251484875	0705150	32	32
9107071	Immanuel-Kant-Schule	Neumünster	24534	Mozartstraße	36	+49 4321 9424210	+49 4321 9424209	Immanuel-Kant-Schule.Neumuenster@schule.landsh.de	https://www.iks.neumuenster.de	9.96533980580842	54.07831795034742	0705151	32	32
9107088	Klaus-Groth-Schule	Neumünster	24534	Parkstraße	1	+49 4321 942-4260	+49 4321 942-4259	Klaus-Groth-Schule.Neumuenster@schule.landsh.de	https://www.klaus-groth-schule.de	9.99055578855535	54.07458529398196	0705152	32	32
9107105	Alexander-von-Humboldt-Schule	Neumünster	24536	Roschdohler Weg	11	+49 4321 9424110	+49 4321 9424109	Alexander-von-Humboldt-Schule.Neumuenster@schule.landsh.de	https://ahs.neumuenster.de/	9.988340564952374	54.1272273166493	0705154	32	32
9107122	Walther-Lehmkuhl-Schule, Regionales Berufsbildungszentrum der Stadt Neumünster, rechtsfähige Anstalt des öffentlichen Rechts	Neumünster	24537	Roonstraße	90	+49 4321 9424700	+49 4321 9424799	Walther-Lehmkuhl-Schule.Neumuenster@schule.landsh.de	https://www.wls.neumuenster.de	9.967209582688694	54.07377465900049	0706280	128	128
9107139	Walther-Lehmkuhl-Schule, Regionales Berufsbildungszentrum der Stadt Neumünster, rechtsfähige Anstalt des öffentlichen Rechts - Außenstelle	Neumünster	24534	Roonstraße	98	+49 4321 9424700			https://www.wls.neumuenster.de	9.965388006848688	54.07250271024671	0706280	128	128
9107152	Walther-Lehmkuhl-Schule, Regionales Berufsbildungszentrum der Stadt Neumünster, rechtsfähige Anstalt des öffentlichen Rechts - Außenstelle	Neumünster	24534	Wasbeker Straße	374	+49 4321 942700			https://www.wls.neumuenster.de	9.936515415117315	54.06916208557493	0706280	128	128
9107161	Walther-Lehmkuhl-Schule, Regionales Berufsbildungszentrum der Stadt Neumünster, rechtsfähige Anstalt des öffentlichen Rechts - Außenstelle	Neumünster	24534	Roonstraße	100	+49 4321 65580			https://www.wls.neumuenster.de	9.964698850084401	54.071969171188265	0706280	128	128
9107174	Elly-Heuss-Knapp-Schule, Regionales Berufsbildungszentrum der Stadt Neumünster, rechtsfähige Anstalt des öffentlichen Rechts	Neumünster	24534	Carlstraße	53	+49 4321 9424810	+49 4321 9424809	Elly-Heuss-Knapp-Schule.Neumuenster@schule.landsh.de	https://www.ehks-nms.de	9.972947848893964	54.08193397758598	0706327	128	128
9107191	Elly-Heuss-Knapp-Schule, Regionales Berufsbildungszentrum der Stadt Neumünster, rechtsfähige Anstalt des öffentlichen Rechts - Außenstelle	Neumünster	24534	Bachstraße	32	+49 4321 9424850			https://www.ehks-nms.de	9.96591697599729	54.07909048208649	0706327	128	128
9107204	Theodor-Litt-Schule, Regionales Berufsbildungszentrum der Stadt Neumünster, rechtsfähige Anstalt des öffentlichen Rechts	Neumünster	24534	Parkstraße	12 - 18	+49 4321 9424910	+49 4321 9424909	Theodor-Litt-Schule.Neumuenster@schule.landsh.de	https://www.tls-nms.de	9.989281798471344	54.07523369833887	0706346	128	128
9107221	Gemeinschaftsschule Neumünster-Brachenfeld, Gemeinschaftsschule mit Oberstufe der Stadt Neumünster in Neumünster	Neumünster	24536	Pestalozziweg	5	+49 4321 9424410	+49 4321 280395	Gemeinschaftsschule-Brachenfeld.Neumuenster@schule.landsh.de	https://gems-brachenfeld.de	10.007955534572675	54.07314047241835	0707154	2048	2080
9107238	Gemeinschaftsschule Faldera, Gemeinschaftsschule mit Oberstufe der Stadt Neumünster	Neumünster	24537	Franz-Wieman-Straße	8	+49 4321 9424510	+49 4321 9424509	Gemeinschaftsschule-Faldera.neumuenster@schule.landsh.de	https://gefa.neumuenster.de/	9.961705635310796	54.064553885493744	0707155	2048	2080
9107255	KIN - Fachschule für Lebensmitteltechnik	Neumünster	24537	Wasbeker Straße	324	+49 4321 60190	+49 4321 60199	apfelt@kin.de		9.942905158997265	54.069944588539535	0799150	256	256
9107270	Freie Waldorfschule Neumünster	Neumünster	24536	Roschdohler Weg	144	+49 4321 952660	+49 4321 9526699	info@waldorf-neumuenster.de	https://www.waldorf-neumuenster.de/aktuelles/	9.98237639537265	54.11283350367525	0799151	256	256
9107302	Grundschule Am Hagen	Ahrensburg	22926	Hagener Allee	117a	+49 4102 57666	+49 4102 57677	Grundschule-Am-Hagen.Ahrensburg@schule.landsh.de	https://www.gs-am-hagen.de	10.21703108	53.64228611	0702940	1	1
9107319	Grundschule Am Reesenbüttel	Ahrensburg	22926	Schimmelmannstraße	46	+49 4102 88760	+49 4102 887676	Grundschule-am-Reesenbuettel.Ahrensburg@schule.landsh.de	https://www.gar.lernnetz.de	10.216251678062768	53.67509300086503	0702941	1	1
9107336	Grundschule Am Schloß	Ahrensburg	22926	Schulstraße	4	+49 4102 471417	+49 4102 471418	Grundschule-am-Schloss.Ahrensburg@schule.landsh.de		10.238395441197374	53.67843216245544	0702942	1	1
9107353	Grundschule Am Aalfang	Ahrensburg	22926	Ahrensfelder Weg	43	+49 4102 57595	+49 4102 57526	Grundschule-am-Aalfang.Ahrensburg@schule.landsh.de	https://www.gs-am-aalfang.lernnetz.de/	10.243769516496219	53.66216123100652	0702986	1	1
9107370	Fritz-Reuter-Schule, Ahrensburg	Ahrensburg	22926	Wulfsdorfer Weg	71	+49 4102 51700	+49 4102 517020	Fritz-Reuter-Schule.Ahrensburg@schule.landsh.de	https://www.fritz-reuter.lernnetz.de/	10.22849714705846	53.67404956973402	0703750	8	8
9107387	Woldenhorn-Schule	Ahrensburg	22926	Schulstraße	13	+49 4531 1601850	+49 4531 1601899	Woldenhorn-Schule.Ahrensburg@schule.landsh.de	https://www.woldenhorn-schule.lernnetz.de	10.237119224145921	53.67759264492738	0703757	8	4104
9107404	Gemeinschaftsschule Am Heimgarten Ahrensburg	Ahrensburg	22926	Reesenbüttler Redder	4 - 10	+49 4102 478420	+49 4102 478417	Gemeinschaftsschule.Ahrensburg@schule.landsh.de	https://www.heimgartenschule.de	10.218169910796743	53.67931551520465	0707710	1024	5120
9107421	Stormarnschule	Ahrensburg	22926	Waldstraße	14	+49 4102 88030	+49 4102 880330	stormarnschule.ahrensburg@schule.landsh.de	https://www.stormarnschule.de	10.240593242632759	53.66938798277953	0705750	32	32
9107438	Eric-Kandel-Gymnasium Ahrensburg	Ahrensburg	22926	Reesenbüttler Redder	4 - 10	+49 4102 478430	+49 4102 478417	Eric-Kandel-Gymnasium.Ahrensburg@schule.landsh.de	https://www.heimgartenschule.de	10.218169910796743	53.67931551520465	0705755	32	32
9107455	Berufliche Schule des Kreises Stormarn in Ahrensburg	Ahrensburg	22926	Hermann-Löns-Straße	38	+49 4102 67830	+49 4102 678331	BS-Ahrensburg.Ahrensburg@schule.landsh.de	https://www.bsahrensburg.de	10.230829967826862	53.67895411618519	0706707	128	128
9107472	Selma-Lagerlöf-Gemeinschaftsschule Ahrensburg mit Oberstufe, Schule der Stadt Ahrensburg	Ahrensburg	22926	Wulfsdorfer Weg	71	+49 4102 88050	+49 4102 880519	slg.ahrensburg@schule.landsh.de	https://www.igs-ahrensburg.de	10.223274545216688	53.67294216437416	0707714	2048	2080
9107489	Grundschule Bünningstedt	Ammersbek	22949	Steenhoop	32	+49 4102 44104	+49 4102 473811	Grundschule.Buenningstedt@schule.landsh.de	https://www.grundschule-buenningstedt.de	10.222431891707956	53.698216009481975	0702950	1	1
9107506	Grundschule Hoisbüttel	Ammersbek	22949	Teichweg	27	+49 40 60558386	+49 40 60558387	Grundschule-Hoisbuettel.Ammersbek@schule.landsh.de	https://www.gshoisbuettel.de	10.157366095849055	53.68153114450641	0702959	1	4097
9107523	Klaus-Groth-Schule, Grundschule der Stadt Bad Oldesloe in Bad Oldesloe	Bad Oldesloe	23843	Königsberger Straße	1	+49 4531 504250	+49 4531 504259	Klaus-Groth-Schule.Bad-Oldesloe@schule.landsh.de	https://www.kgs-od.lernnetz.de	10.380908533059023	53.81674400351237	0702943	1	4097
9107540	Stadtschule	Bad Oldesloe	23843	Salinenstraße	20	+49 4531 504-690	+49 4531 504-694	Stadtschule.Bad-Oldesloe@schule.landsh.de	https://www.stadtschule-badoldesloe.de	10.372778576481885	53.80717453082738	0702944	1	8193
9107557	Grundschule West	Bad Oldesloe	23843	Helene-Stöcker-Straße	2	+49 4531 504740	+49 4531 504749	Grundschule-West.Bad-Oldesloe@schule.landsh.de	https://www.oase-oldesloe.de/offener-ganztag-ogt/offener-ganztag-in-der-grundschule-west/	10.350666599946134	53.80718594569159	0702971	1	4097
9107574	Schule am Masurenweg, Grund- und Gemeinschaftsschule des Schulverbandes Bad Oldesloe in Bad Oldesloe	Bad Oldesloe	23843	Masurenweg	22	+49 4531 82036	+49 4531 87730	Schule-am-Masurenweg.Bad-Oldesloe@schule.landsh.de	https://www.schule-am-masurenweg.de	10.391141174150079	53.804743323304976	0707708	1024	5121
9107591	Schule am Kurpark -FöZ-Förderzentrum	Bad Oldesloe	23843	Am Kurpark	16	+49 4531 504720	+49 4531 504732	Schule-am-Kurpark.Bad-Oldesloe@schule.landsh.de		10.376563184605143	53.80157542792583	0703751	8	8
9107606	Theodor-Storm-Schule, Gemeinschaftsschule der Stadt Bad Oldesloe in Bad Oldesloe	Bad Oldesloe	23843	Olivet-Allee	15	+49 4531 504660	+49 4531 504664	Theodor-Storm-Schule.Bad-Oldesloe@schule.landsh.de	https://tss-badoldesloe.de/	10.364887385328174	53.80707509675828	0707709	1024	5120
9107623	Theodor-Mommsen-Schule	Bad Oldesloe	23843	Hamburger Straße	42	+49 4531 504-602	+49 4531 504-606	Theodor-Mommsen-Schule.Bad-Oldesloe@schule.landsh.de	https://www.tms-od.de	10.367243641189939	53.805916076156876	0705752	32	32
9107640	Berufliche Schule des Kreises Stormarn in Bad Oldesloe	Bad Oldesloe	23843	Schanzenbarg	2 a	+49 4531 1601700	+49 4531 1601750	BS-Stormarn.Bad-Oldesloe@schule.landsh.de	https://www.bs-oldesloe.de	10.39775487	53.80828652	0706706	128	128
9107657	Berufliche Schule des Kreises Stormarn in Bad Oldesloe - Außenstelle	Bad Oldesloe	23843	Am Stadion	11	+49 4531 12451			https://www.bs-oldesloe.de	10.373582273254016	53.81401219140286	0706706	128	128
9107670	Ida-Ehre-Schule, Gemeinschaftsschule mit Oberstufe der Stadt Bad Oldesloe in Bad Oldesloe	Bad Oldesloe	23843	Olivet-Allee	4 - 6	+49 4531 504630		Ida-Ehre-Schule.Bad-Oldesloe@schule.landsh.de	https://www.igs-badoldesloe.de	10.367217373003323	53.80785901126419	0707715	2048	2080
9107683	Alte Alster, Grundschule des Amtes Bargteheide-Land in Bargfeld-Stegen	Bargfeld-Stegen	23863	Schulstraße	10	+49 4532 7245	+49 4532 25184	Grundschule-Alte-Alster.Bargfeld-Stegen@schule.landsh.de		10.183530233879432	53.76430149468218	0702945	1	1
